"visibility","datetime","coord.lon","coord.lat","main.temp","main.feels_like","main.temp_min","main.temp_max","main.pressure","main.humidity","main.sea_level","main.grnd_level","wind.speed","wind.deg","wind.gust","clouds.all","sys.sunrise","sys.sunset","weather.id","weather.main","weather.description","weather.icon","extraction_date_time","city_name","sys.type","sys.id","rain.1h"
10000.0,"2023-11-06 15:35:43+08:00",119.9811,16.1561,30.52,36.34,30.52,30.52,1009.0,70.0,1009.0,1007.0,1.82,66.0,2.63,93.0,"2023-11-06 05:58:51+08:00","2023-11-06 17:28:29+08:00",804.0,"Clouds","overcast clouds","04d","2023-11-06 15:45:05.122654+08:00","Alaminos","","",""
10000.0,"2023-11-06 15:45:07+08:00",120.5833,15.15,35.25,42.25,35.25,35.25,1010.0,55.0,"","",3.09,90.0,"",40.0,"2023-11-06 05:55:14+08:00","2023-11-06 17:27:17+08:00",802.0,"Clouds","scattered clouds","03d","2023-11-06 15:45:07.511028+08:00","Angeles City",1.0,8152.0,""
10000.0,"2023-11-06 15:45:09+08:00",121.19,15.6181,29.74,34.87,29.74,29.74,1010.0,72.0,1010.0,1001.0,2.89,89.0,5.47,14.0,"2023-11-06 05:53:22+08:00","2023-11-06 17:24:18+08:00",801.0,"Clouds","few clouds","02d","2023-11-06 15:45:09.096131+08:00","Antipolo","","",""
10000.0,"2023-11-06 15:45:11+08:00",123.5085,12.2285,29.01,34.34,29.01,29.01,1009.0,78.0,1009.0,1008.0,5.41,66.0,7.71,66.0,"2023-11-06 05:40:04+08:00","2023-11-06 17:19:03+08:00",803.0,"Clouds","broken clouds","04d","2023-11-06 15:45:11.662533+08:00","Bacolod","","",""
10000.0,"2023-11-06 15:45:12+08:00",120.929,14.459000000000001,32.05,39.05,30.58,33.99,1009.0,72.0,"","",2.57,100.0,"",20.0,"2023-11-06 05:53:01+08:00","2023-11-06 17:26:44+08:00",801.0,"Clouds","few clouds","02d","2023-11-06 15:45:12.970057+08:00","Bacoor",2.0,2005706.0,""
10000.0,"2023-11-06 15:45:14+08:00",122.8333,10.5333,29.35,34.8,29.35,29.35,1008.0,76.0,1008.0,1008.0,5.88,17.0,6.99,16.0,"2023-11-06 05:40:47+08:00","2023-11-06 17:23:43+08:00",801.0,"Clouds","few clouds","02d","2023-11-06 15:45:14.683251+08:00","Bago City","","",""
10000.0,"2023-11-06 15:45:16+08:00",120.5931,16.4164,21.55,21.72,21.55,21.55,1011.0,75.0,1011.0,855.0,0.71,254.0,1.55,45.0,"2023-11-06 05:56:43+08:00","2023-11-06 17:25:43+08:00",802.0,"Clouds","scattered clouds","03d","2023-11-06 15:45:16.421231+08:00","Baguio","","",""
10000.0,"2023-11-06 15:35:56+08:00",123.1228,9.5911,30.99,37.88,30.99,30.99,1008.0,71.0,1008.0,1007.0,2.08,51.0,3.31,11.0,"2023-11-06 05:38:33+08:00","2023-11-06 17:23:39+08:00",801.0,"Clouds","few clouds","02d","2023-11-06 15:45:18.504429+08:00","Bais",1.0,8185.0,""
10000.0,"2023-11-06 15:45:20+08:00",120.5361,14.6761,32.03,39.03,32.03,33.96,1009.0,69.0,1009.0,1008.0,3.2,85.0,5.96,79.0,"2023-11-06 05:54:51+08:00","2023-11-06 17:28:02+08:00",803.0,"Clouds","broken clouds","04d","2023-11-06 15:45:20.043278+08:00","Balanga",1.0,8151.0,""
10000.0,"2023-11-06 15:35:59+08:00",120.5649,18.0554,31.88,38.88,31.88,31.88,1009.0,70.0,"","",3.6,320.0,"",20.0,"2023-11-06 05:58:50+08:00","2023-11-06 17:23:49+08:00",801.0,"Clouds","few clouds","02d","2023-11-06 15:45:22.502434+08:00","Batac City",1.0,8159.0,""
10000.0,"2023-11-06 15:45:24+08:00",121.05,13.75,30.62,37.62,30.62,30.62,1009.0,74.0,1009.0,1008.0,5.6,125.0,7.35,6.0,"2023-11-06 05:51:42+08:00","2023-11-06 17:27:05+08:00",800.0,"Clear","clear sky","01d","2023-11-06 15:45:25.021073+08:00","Batangas City",2.0,2011004.0,""
10000.0,"2023-11-06 15:36:04+08:00",122.8011,9.3636,30.05,35.66,30.05,30.05,1008.0,72.0,1008.0,1007.0,0.02,20.0,2.44,34.0,"2023-11-06 05:39:34+08:00","2023-11-06 17:25:12+08:00",802.0,"Clouds","scattered clouds","03d","2023-11-06 15:45:27.591224+08:00","Bayawan","","",""
10000.0,"2023-11-06 15:45:29+08:00",123.7135,13.4083,28.72,33.58,28.72,28.72,1010.0,78.0,1010.0,1009.0,1.74,82.0,2.71,39.0,"2023-11-06 05:40:38+08:00","2023-11-06 17:16:50+08:00",802.0,"Clouds","scattered clouds","03d","2023-11-06 15:45:29.388670+08:00","Baybay","","",""
10000.0,"2023-11-06 15:36:06+08:00",125.7675,8.7561,27.51,32.09,27.51,27.51,1008.0,89.0,1008.0,1000.0,0.63,350.0,0.84,84.0,"2023-11-06 05:27:00+08:00","2023-11-06 17:14:02+08:00",803.0,"Clouds","broken clouds","04d","2023-11-06 15:45:30.720045+08:00","Bayugan","","",""
10000.0,"2023-11-06 15:45:32+08:00",125.0336,11.0725,28.4,32.94,28.4,28.4,1009.0,79.0,1009.0,1008.0,2.32,128.0,4.02,84.0,"2023-11-06 05:32:37+08:00","2023-11-06 17:14:18+08:00",803.0,"Clouds","broken clouds","04d","2023-11-06 15:45:32.050077+08:00","Bislig","","",""
10000.0,"2023-11-06 15:45:33+08:00",121.0807,14.3427,31.55,38.55,30.57,33.98,1010.0,73.0,"","",2.68,91.0,3.13,20.0,"2023-11-06 05:52:16+08:00","2023-11-06 17:26:15+08:00",801.0,"Clouds","few clouds","02d","2023-11-06 15:45:33.418830+08:00","Biñan",2.0,2084056.0,""
10000.0,"2023-11-06 15:36:12+08:00",124.0055,11.0517,29.17,34.12,29.17,29.17,1008.0,75.0,1008.0,1007.0,2.85,27.0,3.87,59.0,"2023-11-06 05:36:42+08:00","2023-11-06 17:18:26+08:00",803.0,"Clouds","broken clouds","04d","2023-11-06 15:45:35.993617+08:00","Bogo","","",""
10000.0,"2023-11-06 15:36:14+08:00",125.4319,11.6081,28.67,33.26,28.67,28.67,1009.0,77.0,1009.0,1009.0,3.08,48.0,4.87,37.0,"2023-11-06 05:31:39+08:00","2023-11-06 17:12:05+08:00",802.0,"Clouds","scattered clouds","03d","2023-11-06 15:45:38.449851+08:00","Borongan","","",""
10000.0,"2023-11-06 15:43:58+08:00",125.5436,8.9492,29.18,34.8,29.18,29.18,1008.0,78.0,1008.0,1007.0,1.57,347.0,3.1,79.0,"2023-11-06 05:28:07+08:00","2023-11-06 17:14:42+08:00",803.0,"Clouds","broken clouds","04d","2023-11-06 15:45:39.748336+08:00","Butuan","","",""
10000.0,"2023-11-06 15:45:41+08:00",125.5344,9.1236,29.31,35.15,29.31,29.31,1008.0,78.0,1008.0,1007.0,2.12,355.0,3.7,50.0,"2023-11-06 05:28:21+08:00","2023-11-06 17:14:33+08:00",802.0,"Clouds","scattered clouds","03d","2023-11-06 15:45:41.384225+08:00","Cabadbaran","","",""
10000.0,"2023-11-06 15:45:42+08:00",120.9667,15.4833,30.46,36.73,30.46,30.46,1009.0,72.0,1009.0,1005.0,2.81,134.0,4.14,33.0,"2023-11-06 05:54:06+08:00","2023-11-06 17:25:21+08:00",802.0,"Clouds","scattered clouds","03d","2023-11-06 15:45:42.950807+08:00","Cabanatuan City","","",""
10000.0,"2023-11-06 15:45:45+08:00",121.1262,14.2726,31.49,38.49,30.51,33.92,1009.0,77.0,1009.0,1007.0,5.23,88.0,7.93,7.0,"2023-11-06 05:52:00+08:00","2023-11-06 17:26:10+08:00",800.0,"Clear","clear sky","01d","2023-11-06 15:45:45.460786+08:00","Cabuyao",2.0,2084056.0,""
10000.0,"2023-11-06 15:45:46+08:00",123.2856,10.9506,29.16,33.88,29.16,29.16,1009.0,74.0,1009.0,1009.0,2.61,42.0,3.42,79.0,"2023-11-06 05:39:28+08:00","2023-11-06 17:21:26+08:00",803.0,"Clouds","broken clouds","04d","2023-11-06 15:45:46.787858+08:00","Cadiz","","",""
10000.0,"2023-11-06 15:45:47+08:00",124.6472,8.4822,29.13,34.02,29.13,29.13,1008.0,75.0,1008.0,1007.0,1.54,343.0,1.82,36.0,"2023-11-06 05:31:10+08:00","2023-11-06 17:18:50+08:00",802.0,"Clouds","scattered clouds","03d","2023-11-06 15:45:48.005223+08:00","Cagayan de Oro","","",""
10000.0,"2023-11-06 15:45:50+08:00",120.8133,13.9324,30.31,36.33,30.31,30.31,1009.0,72.0,1009.0,1006.0,4.2,112.0,6.64,55.0,"2023-11-06 05:52:51+08:00","2023-11-06 17:27:49+08:00",803.0,"Clouds","broken clouds","04d","2023-11-06 15:45:50.082921+08:00","Calaca","","",""
10000.0,"2023-11-06 15:45:51+08:00",121.1653,14.2117,30.85,37.79,30.51,32.97,1009.0,72.0,1009.0,1008.0,4.76,82.0,7.26,10.0,"2023-11-06 05:51:47+08:00","2023-11-06 17:26:05+08:00",800.0,"Clear","clear sky","01d","2023-11-06 15:45:51.612894+08:00","Calamba",2.0,2084056.0,""
10000.0,"2023-11-06 15:36:30+08:00",121.1803,13.4117,30.62,37.62,30.62,30.62,1009.0,77.0,1009.0,1009.0,4.46,81.0,5.88,23.0,"2023-11-06 05:50:46+08:00","2023-11-06 17:26:58+08:00",801.0,"Clouds","few clouds","02d","2023-11-06 15:45:53.928074+08:00","Calapan",2.0,2011004.0,""
10000.0,"2023-11-06 15:45:55+08:00",124.6,12.0667,28.72,33.97,28.72,28.72,1009.0,80.0,1009.0,1008.0,3.26,65.0,6.55,81.0,"2023-11-06 05:35:30+08:00","2023-11-06 17:14:52+08:00",803.0,"Clouds","broken clouds","04d","2023-11-06 15:45:55.598131+08:00","Calbayog City","","",""
10000.0,"2023-11-06 15:45:57+08:00",120.9667,14.65,33.36,40.36,30.57,33.99,1010.0,68.0,"","",4.02,86.0,5.81,20.0,"2023-11-06 05:53:06+08:00","2023-11-06 17:26:21+08:00",801.0,"Clouds","few clouds","02d","2023-11-06 15:45:57.268864+08:00","Caloocan City",2.0,2008256.0,""
10000.0,"2023-11-06 15:45:59+08:00",120.4517,17.1947,29.41,34.51,29.41,29.41,1010.0,74.0,1010.0,1009.0,1.59,286.0,1.56,9.0,"2023-11-06 05:58:14+08:00","2023-11-06 17:25:20+08:00",800.0,"Clear","clear sky","01d","2023-11-06 15:45:59.273074+08:00","Candon","","",""
10000.0,"2023-11-06 15:36:38+08:00",123.1964,10.3864,26.17,26.17,26.17,26.17,1009.0,79.0,1009.0,948.0,2.21,74.0,3.35,58.0,"2023-11-06 05:39:10+08:00","2023-11-06 17:22:26+08:00",803.0,"Clouds","broken clouds","04d","2023-11-06 15:46:01.306483+08:00","Canlaon","","",""
10000.0,"2023-11-06 15:46:03+08:00",123.6402,10.1061,31.98,38.98,31.98,31.98,1008.0,70.0,1008.0,1007.0,2.72,54.0,3.74,31.0,"2023-11-06 05:37:04+08:00","2023-11-06 17:20:59+08:00",802.0,"Clouds","scattered clouds","03d","2023-11-06 15:46:03.889685+08:00","Carcar",1.0,8187.0,""
10000.0,"2023-11-06 15:46:05+08:00",121.0576,14.3132,31.42,38.42,30.44,33.86,1010.0,75.0,"","",2.68,91.0,3.13,9.0,"2023-11-06 05:52:20+08:00","2023-11-06 17:26:23+08:00",800.0,"Clear","clear sky","01d","2023-11-06 15:46:05.357349+08:00","Carmona",2.0,2084056.0,""
10000.0,"2023-11-06 15:46:07+08:00",124.8861,11.7753,28.95,33.57,28.95,28.95,1009.0,75.0,1009.0,1004.0,3.57,57.0,5.92,44.0,"2023-11-06 05:34:01+08:00","2023-11-06 17:14:04+08:00",802.0,"Clouds","scattered clouds","03d","2023-11-06 15:46:07.327543+08:00","Catbalogan","","",""
10000.0,"2023-11-06 15:46:08+08:00",121.7725,16.9347,30.27,36.5,30.27,30.27,1010.0,73.0,1010.0,1003.0,2.3,83.0,3.7,15.0,"2023-11-06 05:52:38+08:00","2023-11-06 17:20:22+08:00",801.0,"Clouds","few clouds","02d","2023-11-06 15:46:08.484570+08:00","Cauayan","","",""
10000.0,"2023-11-06 15:46:10+08:00",120.9169,14.4825,32.23,39.23,30.59,34.01,1009.0,71.0,"","",2.57,100.0,"",20.0,"2023-11-06 05:53:06+08:00","2023-11-06 17:26:45+08:00",801.0,"Clouds","few clouds","02d","2023-11-06 15:46:10.376552+08:00","Cavite City",1.0,8160.0,""
10000.0,"2023-11-06 15:36:49+08:00",123.8907,10.3167,31.81,37.23,30.32,31.81,1010.0,62.0,"","",1.03,40.0,"",75.0,"2023-11-06 05:36:19+08:00","2023-11-06 17:19:45+08:00",803.0,"Clouds","broken clouds","04d","2023-11-06 15:46:12.448389+08:00","Cebu City",1.0,8187.0,""
10000.0,"2023-11-06 15:36:51+08:00",121.1,14.6333,32.77,39.77,29.97,33.94,1009.0,67.0,"","",2.57,100.0,"",20.0,"2023-11-06 05:52:33+08:00","2023-11-06 17:25:50+08:00",801.0,"Clouds","few clouds","02d","2023-11-06 15:46:14.485521+08:00","City of Marikina",2.0,2008256.0,""
10000.0,"2023-11-06 15:46:16+08:00",123.5833,12.3333,28.69,33.7,28.69,28.69,1009.0,79.0,1009.0,1005.0,5.08,66.0,7.34,59.0,"2023-11-06 05:39:53+08:00","2023-11-06 17:18:37+08:00",500.0,"Rain","light rain","10d","2023-11-06 15:46:16.440173+08:00","City of Masbate","","",0.89
10000.0,"2023-11-06 15:36:04+08:00",122.65,11.15,29.23,35.16,29.23,29.23,1009.0,79.0,1009.0,1003.0,3.41,42.0,5.48,38.0,"2023-11-06 05:42:14+08:00","2023-11-06 17:23:44+08:00",802.0,"Clouds","scattered clouds","03d","2023-11-06 15:46:18.207731+08:00","City of Passi",2.0,2073369.0,""
10000.0,"2023-11-06 15:46:20+08:00",123.9833,12.9833,28.11,32.7,28.11,28.11,1010.0,82.0,1010.0,1004.0,4.2,65.0,6.39,73.0,"2023-11-06 05:39:03+08:00","2023-11-06 17:16:16+08:00",803.0,"Clouds","broken clouds","04d","2023-11-06 15:46:20.533335+08:00","City of Sorsogon","","",""
10000.0,"2023-11-06 15:36:59+08:00",124.2464,7.2236,28.83,34.07,28.83,28.83,1008.0,79.0,1008.0,1007.0,2.65,280.0,4.5,32.0,"2023-11-06 05:31:20+08:00","2023-11-06 17:21:52+08:00",802.0,"Clouds","scattered clouds","03d","2023-11-06 15:46:23.064444+08:00","Cotabato","","",""
10000.0,"2023-11-06 15:46:24+08:00",121.5047,17.7061,30.91,37.66,30.91,30.91,1010.0,71.0,1010.0,1006.0,1.94,55.0,2.48,24.0,"2023-11-06 05:54:39+08:00","2023-11-06 17:20:30+08:00",801.0,"Clouds","few clouds","02d","2023-11-06 15:46:24.470477+08:00","Dagupan","","",""
10000.0,"2023-11-06 15:46:26+08:00",124.0272,10.5208,29.98,36.98,29.98,32.03,1009.0,82.0,1009.0,1008.0,4.47,34.0,6.26,72.0,"2023-11-06 05:36:00+08:00","2023-11-06 17:18:58+08:00",803.0,"Clouds","broken clouds","04d","2023-11-06 15:46:26.891030+08:00","Danao",2.0,2089763.0,""
10000.0,"2023-11-06 15:37:05+08:00",123.9469,10.2706,32.03,37.76,30.54,32.03,1010.0,62.0,"","",1.03,40.0,"",75.0,"2023-11-06 05:36:02+08:00","2023-11-06 17:19:34+08:00",803.0,"Clouds","broken clouds","04d","2023-11-06 15:46:28.707962+08:00","Dapitan",1.0,8187.0,""
10000.0,"2023-11-06 15:46:30+08:00",120.9367,14.3294,31.14,38.14,30.07,33.49,1009.0,76.0,1009.0,1000.0,5.04,98.0,8.0,11.0,"2023-11-06 05:52:50+08:00","2023-11-06 17:26:51+08:00",801.0,"Clouds","few clouds","02d","2023-11-06 15:46:30.995872+08:00","Dasmariñas",2.0,2084056.0,""
10000.0,"2023-11-06 15:46:33+08:00",125.6128,7.0731,33.05,40.05,33.05,33.05,1007.0,62.0,"","",2.57,20.0,"",40.0,"2023-11-06 05:25:42+08:00","2023-11-06 17:16:35+08:00",802.0,"Clouds","scattered clouds","03d","2023-11-06 15:46:33.129225+08:00","Davao",1.0,8154.0,""
10000.0,"2023-11-06 15:46:35+08:00",125.3572,6.7497,28.98,34.05,28.98,28.98,1008.0,77.0,1008.0,1006.0,2.42,107.0,3.16,16.0,"2023-11-06 05:26:21+08:00","2023-11-06 17:17:58+08:00",801.0,"Clouds","few clouds","02d","2023-11-06 15:46:35.741465+08:00","Digos","","",""
10000.0,"2023-11-06 15:46:38+08:00",123.3414,8.5894,29.28,35.07,29.28,29.28,1008.0,78.0,1008.0,1007.0,3.64,56.0,5.3,44.0,"2023-11-06 05:36:31+08:00","2023-11-06 17:23:56+08:00",802.0,"Clouds","scattered clouds","03d","2023-11-06 15:46:38.246962+08:00","Dipolog","","",""
10000.0,"2023-11-06 15:46:40+08:00",123.3081,9.3103,30.99,37.57,30.99,30.99,1008.0,70.0,"","",4.12,70.0,"",20.0,"2023-11-06 05:37:29+08:00","2023-11-06 17:23:14+08:00",801.0,"Clouds","few clouds","02d","2023-11-06 15:46:40.504142+08:00","Dumaguete",1.0,8185.0,""
10000.0,"2023-11-06 15:35:32+08:00",124.5225,8.5631,29.42,34.09,29.42,29.42,1008.0,72.0,1008.0,1008.0,1.25,329.0,1.4,25.0,"2023-11-06 05:31:46+08:00","2023-11-06 17:19:14+08:00",802.0,"Clouds","scattered clouds","03d","2023-11-06 15:46:41.774697+08:00","El Salvador","","",""
10000.0,"2023-11-06 15:46:43+08:00",123.4992,10.8403,29.17,33.91,29.17,29.17,1008.0,74.0,1008.0,1006.0,3.16,1.0,3.3,64.0,"2023-11-06 05:38:29+08:00","2023-11-06 17:20:42+08:00",803.0,"Clouds","broken clouds","04d","2023-11-06 15:46:43.342136+08:00","Escalante","","",""
10000.0,"2023-11-06 15:37:18+08:00",120.9464,15.3072,35.74,42.74,35.74,35.74,1009.0,70.0,1009.0,1006.0,4.41,112.0,7.61,21.0,"2023-11-06 05:53:58+08:00","2023-11-06 17:25:39+08:00",801.0,"Clouds","few clouds","02d","2023-11-06 15:46:45.720003+08:00","Gapan",1.0,8152.0,""
10000.0,"2023-11-06 15:37:19+08:00",125.1717,6.1128,34.88,41.88,34.88,34.88,1008.0,55.0,"","",5.14,150.0,"",20.0,"2023-11-06 05:26:22+08:00","2023-11-06 17:19:26+08:00",801.0,"Clouds","few clouds","02d","2023-11-06 15:46:47.034887+08:00","General Santos",1.0,8162.0,""
10000.0,"2023-11-06 15:37:21+08:00",120.8817,14.3869,31.47,38.47,29.92,33.9,1009.0,75.0,1009.0,1007.0,4.86,102.0,7.63,16.0,"2023-11-06 05:53:07+08:00","2023-11-06 17:27:00+08:00",801.0,"Clouds","few clouds","02d","2023-11-06 15:46:48.495219+08:00","General Trias",2.0,2084056.0,""
10000.0,"2023-11-06 15:46:50+08:00",125.1167,8.8333,29.54,35.79,29.54,29.54,1009.0,78.0,1009.0,1009.0,1.6,4.0,2.08,78.0,"2023-11-06 05:29:42+08:00","2023-11-06 17:16:33+08:00",803.0,"Clouds","broken clouds","04d","2023-11-06 15:46:50.401269+08:00","Gingoog City","","",""
10000.0,"2023-11-06 15:46:52+08:00",122.8706,10.0989,29.68,35.93,29.68,29.68,1008.0,77.0,1008.0,1008.0,3.18,16.0,4.17,37.0,"2023-11-06 05:40:08+08:00","2023-11-06 17:24:04+08:00",802.0,"Clouds","scattered clouds","03d","2023-11-06 15:46:52.881205+08:00","Himamaylan","","",""
10000.0,"2023-11-06 15:37:27+08:00",121.8892,17.1485,30.61,36.85,30.61,30.61,1011.0,71.0,1011.0,1006.0,1.45,94.0,2.64,29.0,"2023-11-06 05:52:25+08:00","2023-11-06 17:19:39+08:00",802.0,"Clouds","scattered clouds","03d","2023-11-06 15:46:54.422047+08:00","Ilagan","","",""
10000.0,"2023-11-06 15:37:29+08:00",124.4,8.25,26.57,26.57,26.57,26.57,1009.0,87.0,1009.0,976.0,1.01,1.0,1.37,67.0,"2023-11-06 05:31:54+08:00","2023-11-06 17:20:05+08:00",803.0,"Clouds","broken clouds","04d","2023-11-06 15:46:56.580378+08:00","Iligan City","","",""
10000.0,"2023-11-06 15:46:58+08:00",122.55,10.75,29.69,35.46,29.69,29.69,1008.0,75.0,1008.0,1007.0,5.59,34.0,7.41,64.0,"2023-11-06 05:42:11+08:00","2023-11-06 17:24:36+08:00",803.0,"Clouds","broken clouds","04d","2023-11-06 15:46:58.707097+08:00","Iloilo City","","",""
10000.0,"2023-11-06 15:47:00+08:00",120.9367,14.4297,31.86,38.86,30.55,33.4,1009.0,71.0,"","",2.57,100.0,"",20.0,"2023-11-06 05:52:57+08:00","2023-11-06 17:26:44+08:00",801.0,"Clouds","few clouds","02d","2023-11-06 15:47:00.778253+08:00","Imus",2.0,2037715.0,""
10000.0,"2023-11-06 15:47:02+08:00",123.4167,13.4167,29.01,34.55,29.01,29.01,1009.0,79.0,1009.0,1007.0,1.75,58.0,3.49,27.0,"2023-11-06 05:41:50+08:00","2023-11-06 17:18:01+08:00",802.0,"Clouds","scattered clouds","03d","2023-11-06 15:47:02.683231+08:00","Iriga City","","",""
10000.0,"2023-11-06 15:47:05+08:00",122.9888,10.2048,30.05,36.44,30.05,30.05,1008.0,75.0,1008.0,1005.0,1.86,34.0,3.4,42.0,"2023-11-06 05:39:47+08:00","2023-11-06 17:23:29+08:00",802.0,"Clouds","scattered clouds","03d","2023-11-06 15:47:05.210750+08:00","Isabela","","",""
10000.0,"2023-11-06 15:37:37+08:00",122.8122,9.9889,29.34,35.47,29.34,29.34,1008.0,79.0,1008.0,1007.0,2.83,6.0,3.89,35.0,"2023-11-06 05:40:15+08:00","2023-11-06 17:24:26+08:00",802.0,"Clouds","scattered clouds","03d","2023-11-06 15:47:06.835944+08:00","Kabankalan","","",""
10000.0,"2023-11-06 15:47:09+08:00",125.0894,7.0083,28.38,33.25,28.38,28.38,1008.0,81.0,1008.0,978.0,1.03,148.0,2.39,69.0,"2023-11-06 05:27:43+08:00","2023-11-06 17:18:45+08:00",803.0,"Clouds","broken clouds","04d","2023-11-06 15:47:09.352225+08:00","Kidapawan","","",""
10000.0,"2023-11-06 15:44:59+08:00",124.8469,6.5031,29.16,36.13,29.16,29.16,1008.0,84.0,1008.0,1002.0,0.08,119.0,0.4,92.0,"2023-11-06 05:28:07+08:00","2023-11-06 17:20:17+08:00",804.0,"Clouds","overcast clouds","04d","2023-11-06 15:47:11.688653+08:00","Koronadal","","",""
10000.0,"2023-11-06 15:37:43+08:00",122.9208,10.4233,29.64,35.57,29.64,29.64,1008.0,76.0,1008.0,1005.0,3.6,13.0,4.84,30.0,"2023-11-06 05:40:19+08:00","2023-11-06 17:23:30+08:00",802.0,"Clouds","scattered clouds","03d","2023-11-06 15:47:13.418324+08:00","La Carlota","","",""
10000.0,"2023-11-06 15:47:14+08:00",125.7022,6.0872,28.1,32.35,28.1,28.1,1008.0,80.0,1008.0,1007.0,2.14,74.0,2.33,78.0,"2023-11-06 05:24:13+08:00","2023-11-06 17:17:21+08:00",803.0,"Clouds","broken clouds","04d","2023-11-06 15:47:14.714754+08:00","Lamitan","","",""
10000.0,"2023-11-06 15:37:47+08:00",120.5936,18.1989,31.95,38.95,31.95,31.95,1009.0,70.0,"","",3.6,320.0,"",20.0,"2023-11-06 05:58:54+08:00","2023-11-06 17:23:32+08:00",801.0,"Clouds","few clouds","02d","2023-11-06 15:47:16.153005+08:00","Laoag",1.0,8159.0,""
10000.0,"2023-11-06 15:47:18+08:00",123.9494,10.3103,32.02,37.74,29.97,32.02,1010.0,62.0,"","",1.03,40.0,"",75.0,"2023-11-06 05:36:04+08:00","2023-11-06 17:19:31+08:00",803.0,"Clouds","broken clouds","04d","2023-11-06 15:47:18.163190+08:00","Lapu-Lapu City",1.0,8187.0,""
10000.0,"2023-11-06 15:47:19+08:00",120.9828,14.4506,31.88,38.88,30.51,33.36,1010.0,71.0,"","",4.47,109.0,8.05,20.0,"2023-11-06 05:52:48+08:00","2023-11-06 17:26:31+08:00",801.0,"Clouds","few clouds","02d","2023-11-06 15:47:19.814534+08:00","Las Piñas",2.0,2005706.0,""
10000.0,"2023-11-06 15:47:21+08:00",123.7333,13.1333,28.6,33.65,28.6,28.6,1010.0,80.0,1010.0,1007.0,3.06,65.0,5.33,49.0,"2023-11-06 05:40:14+08:00","2023-11-06 17:17:05+08:00",802.0,"Clouds","scattered clouds","03d","2023-11-06 15:47:21.769515+08:00","Legazpi City","","",""
10000.0,"2023-11-06 15:47:24+08:00",123.5325,13.2403,28.92,34.73,28.92,28.92,1009.0,81.0,1009.0,1004.0,1.51,78.0,2.43,44.0,"2023-11-06 05:41:09+08:00","2023-11-06 17:17:46+08:00",802.0,"Clouds","scattered clouds","03d","2023-11-06 15:47:24.232112+08:00","Ligao","","",""
10000.0,"2023-11-06 15:47:25+08:00",121.1667,13.95,28.59,31.53,28.59,28.59,1009.0,68.0,1009.0,973.0,2.57,68.0,4.47,28.0,"2023-11-06 05:51:28+08:00","2023-11-06 17:26:23+08:00",802.0,"Clouds","scattered clouds","03d","2023-11-06 15:47:25.781649+08:00","Lipa City",2.0,2011004.0,""
10000.0,"2023-11-06 15:47:27+08:00",122.5967,10.8794,29.33,34.97,29.33,29.33,1008.0,77.0,1008.0,1006.0,5.09,35.0,7.01,57.0,"2023-11-06 05:42:08+08:00","2023-11-06 17:24:16+08:00",803.0,"Clouds","broken clouds","04d","2023-11-06 15:47:27.860061+08:00","Lucena","","",""
10000.0,"2023-11-06 15:38:01+08:00",122.4347,10.8925,29.21,34.44,29.21,29.21,1009.0,76.0,1009.0,999.0,4.06,37.0,6.04,80.0,"2023-11-06 05:42:48+08:00","2023-11-06 17:24:54+08:00",803.0,"Clouds","broken clouds","04d","2023-11-06 15:47:29.918906+08:00","Maasin","","",""
10000.0,"2023-11-06 15:38:03+08:00",120.5736,15.2216,35.21,42.21,35.21,35.21,1010.0,55.0,"","",3.09,90.0,"",40.0,"2023-11-06 05:55:21+08:00","2023-11-06 17:27:14+08:00",802.0,"Clouds","scattered clouds","03d","2023-11-06 15:47:32.122495+08:00","Mabalacat City",1.0,8152.0,""
10000.0,"2023-11-06 15:47:33+08:00",121.0327,14.5503,32.25,39.25,30.45,33.3,1010.0,69.0,"","",4.47,109.0,8.05,20.0,"2023-11-06 05:52:43+08:00","2023-11-06 17:26:12+08:00",801.0,"Clouds","few clouds","02d","2023-11-06 15:47:33.560862+08:00","Makati City",1.0,8160.0,""
10000.0,"2023-11-06 15:47:35+08:00",119.9379,15.6361,30.0,36.04,30.0,30.0,1009.0,74.0,1009.0,1009.0,2.06,281.0,1.77,81.0,"2023-11-06 05:58:24+08:00","2023-11-06 17:29:17+08:00",803.0,"Clouds","broken clouds","04d","2023-11-06 15:47:35.676668+08:00","Malabon","","",""
10000.0,"2023-11-06 15:47:37+08:00",125.0833,8.15,24.83,25.48,24.83,24.83,1010.0,81.0,1010.0,920.0,0.59,25.0,3.21,89.0,"2023-11-06 05:29:03+08:00","2023-11-06 17:17:28+08:00",804.0,"Clouds","overcast clouds","04d","2023-11-06 15:47:37.800622+08:00","Malaybalay","","",""
10000.0,"2023-11-06 15:38:11+08:00",120.8117,14.8419,33.89,40.89,31.17,35.85,1009.0,63.0,1009.0,1008.0,3.64,63.0,5.89,56.0,"2023-11-06 05:53:57+08:00","2023-11-06 17:26:44+08:00",803.0,"Clouds","broken clouds","04d","2023-11-06 15:47:39.106709+08:00","Malolos",2.0,2008256.0,""
10000.0,"2023-11-06 15:47:41+08:00",121.0409,14.5832,32.43,39.43,30.46,33.31,1009.0,69.0,"","",2.57,100.0,"",20.0,"2023-11-06 05:52:43+08:00","2023-11-06 17:26:08+08:00",801.0,"Clouds","few clouds","02d","2023-11-06 15:47:41.688361+08:00","Mandaluyong City",1.0,8160.0,""
10000.0,"2023-11-06 15:47:43+08:00",123.9333,10.3333,31.98,37.64,29.94,31.98,1010.0,62.0,"","",1.03,40.0,"",75.0,"2023-11-06 05:36:09+08:00","2023-11-06 17:19:33+08:00",803.0,"Clouds","broken clouds","04d","2023-11-06 15:47:43.253695+08:00","Mandaue City",1.0,8187.0,""
10000.0,"2023-11-06 15:36:42+08:00",120.9822,14.6042,32.9,39.9,29.99,33.96,1010.0,68.0,"","",2.57,100.0,"",20.0,"2023-11-06 05:52:59+08:00","2023-11-06 17:26:20+08:00",801.0,"Clouds","few clouds","02d","2023-11-06 15:47:45.683838+08:00","Manila",2.0,2008256.0,""
10000.0,"2023-11-06 15:47:47+08:00",124.2928,7.9986,23.91,24.73,23.91,23.91,1010.0,91.0,1010.0,931.0,1.58,356.0,2.01,57.0,"2023-11-06 05:32:02+08:00","2023-11-06 17:20:48+08:00",803.0,"Clouds","broken clouds","04d","2023-11-06 15:47:47.436905+08:00","Marawi","","",""
10000.0,"2023-11-06 15:47:49+08:00",125.4708,9.7339,28.67,32.89,28.67,28.67,1009.0,75.0,1009.0,1000.0,3.71,59.0,5.0,16.0,"2023-11-06 05:29:19+08:00","2023-11-06 17:14:06+08:00",801.0,"Clouds","few clouds","02d","2023-11-06 15:47:49.384577+08:00","Mati","","",""
10000.0,"2023-11-06 15:38:23+08:00",120.9608,14.7369,33.36,40.36,30.01,33.98,1010.0,66.0,"","",0.89,189.0,4.47,55.0,"2023-11-06 05:53:13+08:00","2023-11-06 17:26:16+08:00",803.0,"Clouds","broken clouds","04d","2023-11-06 15:47:51.155470+08:00","Meycauayan",2.0,2008256.0,""
10000.0,"2023-11-06 15:38:25+08:00",120.9031,15.7161,29.99,35.26,29.99,29.99,1009.0,71.0,1009.0,1001.0,3.73,100.0,6.78,40.0,"2023-11-06 05:54:38+08:00","2023-11-06 17:25:19+08:00",802.0,"Clouds","scattered clouds","03d","2023-11-06 15:47:52.342490+08:00","Muñoz","","",""
10000.0,"2023-11-06 15:47:54+08:00",123.1814,13.6192,29.06,34.69,29.06,29.06,1009.0,79.0,1009.0,1008.0,3.45,42.0,5.55,15.0,"2023-11-06 05:43:01+08:00","2023-11-06 17:18:43+08:00",801.0,"Clouds","few clouds","02d","2023-11-06 15:47:54.909403+08:00","Naga","","",""
10000.0,"2023-11-06 15:38:29+08:00",120.95,14.6667,33.32,40.32,30.01,33.99,1010.0,66.0,"","",2.57,100.0,"",20.0,"2023-11-06 05:53:11+08:00","2023-11-06 17:26:24+08:00",801.0,"Clouds","few clouds","02d","2023-11-06 15:47:56.546265+08:00","Navotas",2.0,2008256.0,""
10000.0,"2023-11-06 15:47:58+08:00",120.2828,14.8292,32.03,39.03,32.03,35.84,1009.0,66.0,"","",5.14,70.0,"",40.0,"2023-11-06 05:56:03+08:00","2023-11-06 17:28:52+08:00",802.0,"Clouds","scattered clouds","03d","2023-11-06 15:47:58.272226+08:00","Olongapo",1.0,8151.0,""
10000.0,"2023-11-06 15:38:32+08:00",124.6075,11.0064,29.17,34.77,29.17,29.17,1009.0,78.0,1009.0,1008.0,1.15,93.0,2.03,21.0,"2023-11-06 05:34:14+08:00","2023-11-06 17:16:05+08:00",801.0,"Clouds","few clouds","02d","2023-11-06 15:48:00.052155+08:00","Ormoc","","",""
10000.0,"2023-11-06 15:48:02+08:00",123.8044,8.4858,29.36,34.6,29.36,29.36,1008.0,75.0,1008.0,1008.0,2.13,15.0,2.46,12.0,"2023-11-06 05:34:33+08:00","2023-11-06 17:22:12+08:00",801.0,"Clouds","few clouds","02d","2023-11-06 15:48:02.499689+08:00","Oroquieta","","",""
10000.0,"2023-11-06 15:48:04+08:00",123.8333,8.15,29.43,35.24,29.43,29.43,1009.0,77.0,1009.0,1008.0,1.88,37.0,2.56,36.0,"2023-11-06 05:34:03+08:00","2023-11-06 17:22:28+08:00",802.0,"Clouds","scattered clouds","03d","2023-11-06 15:48:04.918756+08:00","Ozamiz City","","",""
10000.0,"2023-11-06 15:48:06+08:00",123.43700000000001,7.8257,29.22,34.46,29.22,29.22,1008.0,76.0,1008.0,1005.0,1.14,145.0,1.39,22.0,"2023-11-06 05:35:16+08:00","2023-11-06 17:24:25+08:00",801.0,"Clouds","few clouds","02d","2023-11-06 15:48:06.937285+08:00","Pagadian","","",""
10000.0,"2023-11-06 15:48:08+08:00",121.0833,15.55,30.24,36.15,30.24,30.24,1009.0,72.0,1009.0,1004.0,2.62,111.0,4.59,28.0,"2023-11-06 05:53:42+08:00","2023-11-06 17:24:48+08:00",802.0,"Clouds","scattered clouds","03d","2023-11-06 15:48:08.743289+08:00","Palayan City","","",""
10000.0,"2023-11-06 15:48:10+08:00",125.6842,7.3081,33.06,40.06,33.06,33.06,1008.0,75.0,1008.0,1007.0,2.22,155.0,3.11,59.0,"2023-11-06 05:25:41+08:00","2023-11-06 17:16:01+08:00",803.0,"Clouds","broken clouds","04d","2023-11-06 15:48:10.383819+08:00","Panabo",1.0,8154.0,""
10000.0,"2023-11-06 15:38:44+08:00",121.0175,14.4816,31.84,38.84,29.92,33.9,1010.0,71.0,"","",4.02,130.0,4.47,20.0,"2023-11-06 05:52:42+08:00","2023-11-06 17:26:21+08:00",801.0,"Clouds","few clouds","02d","2023-11-06 15:48:12.792230+08:00","Paranaque City",2.0,2005706.0,""
10000.0,"2023-11-06 15:48:15+08:00",121.065,14.587,32.35,39.35,30.39,33.25,1009.0,69.0,"","",2.57,100.0,"",20.0,"2023-11-06 05:52:38+08:00","2023-11-06 17:26:02+08:00",801.0,"Clouds","few clouds","02d","2023-11-06 15:48:15.062396+08:00","Pasig",1.0,8160.0,""
10000.0,"2023-11-06 15:48:16+08:00",118.7333,9.7333,29.04,35.76,29.04,29.04,1009.0,84.0,"","",3.09,360.0,"",75.0,"2023-11-06 05:56:16+08:00","2023-11-06 17:41:03+08:00",500.0,"Rain","light rain","10d","2023-11-06 15:48:16.553638+08:00","Puerto Princesa City",1.0,8186.0,0.46
10000.0,"2023-11-06 15:48:05+08:00",121.0333,14.6333,32.67,39.67,30.38,33.23,1010.0,68.0,"","",2.57,100.0,"",20.0,"2023-11-06 05:52:49+08:00","2023-11-06 17:26:06+08:00",801.0,"Clouds","few clouds","02d","2023-11-06 15:48:18.297995+08:00","Quezon City",2.0,2008256.0,""
10000.0,"2023-11-06 15:48:20+08:00",121.6201,17.1189,30.49,36.53,30.49,30.49,1010.0,71.0,1010.0,1003.0,1.33,92.0,2.14,16.0,"2023-11-06 05:53:28+08:00","2023-11-06 17:20:45+08:00",801.0,"Clouds","few clouds","02d","2023-11-06 15:48:20.638565+08:00","Roxas","","",""
10000.0,"2023-11-06 15:48:22+08:00",123.4242,10.9447,29.23,33.85,29.23,29.23,1009.0,73.0,1009.0,1008.0,2.66,15.0,3.26,69.0,"2023-11-06 05:38:54+08:00","2023-11-06 17:20:53+08:00",803.0,"Clouds","broken clouds","04d","2023-11-06 15:48:22.498451+08:00","Sagay","","",""
10000.0,"2023-11-06 15:38:55+08:00",120.5431,14.7678,32.11,39.11,32.05,35.85,1009.0,67.0,1009.0,1008.0,3.01,80.0,6.13,95.0,"2023-11-06 05:54:56+08:00","2023-11-06 17:27:54+08:00",804.0,"Clouds","overcast clouds","04d","2023-11-06 15:48:24.391004+08:00","Samal",1.0,8151.0,""
10000.0,"2023-11-06 15:38:58+08:00",120.8931,15.5448,30.68,37.04,30.68,30.68,1009.0,71.0,1009.0,1005.0,2.77,130.0,4.21,30.0,"2023-11-06 05:54:28+08:00","2023-11-06 17:25:34+08:00",802.0,"Clouds","scattered clouds","03d","2023-11-06 15:48:26.282737+08:00","San Carlos","","",""
10000.0,"2023-11-06 15:39:00+08:00",120.3166,16.6159,29.2,34.19,29.2,29.2,1010.0,75.0,1010.0,1009.0,2.14,329.0,1.99,20.0,"2023-11-06 05:58:04+08:00","2023-11-06 17:26:35+08:00",801.0,"Clouds","few clouds","02d","2023-11-06 15:48:28.332167+08:00","San Fernando","","",""
10000.0,"2023-11-06 15:48:29+08:00",121.8712,17.8927,29.33,34.75,29.33,29.33,1011.0,76.0,1011.0,1008.0,2.66,84.0,4.37,25.0,"2023-11-06 05:53:24+08:00","2023-11-06 17:18:48+08:00",802.0,"Clouds","scattered clouds","03d","2023-11-06 15:48:29.584349+08:00","San Jose","","",""
10000.0,"2023-11-06 15:48:31+08:00",121.0453,14.8139,32.73,39.73,30.27,33.12,1009.0,68.0,1009.0,1003.0,2.8,62.0,4.69,37.0,"2023-11-06 05:52:59+08:00","2023-11-06 17:25:50+08:00",802.0,"Clouds","scattered clouds","03d","2023-11-06 15:48:31.267542+08:00","San Jose del Monte",2.0,2008256.0,""
10000.0,"2023-11-06 15:39:05+08:00",120.4583,17.7422,31.92,38.92,31.92,31.92,1010.0,75.0,1010.0,1008.0,2.12,300.0,2.22,5.0,"2023-11-06 05:58:52+08:00","2023-11-06 17:24:38+08:00",800.0,"Clear","clear sky","01d","2023-11-06 15:48:33.577229+08:00","San Juan",1.0,8159.0,""
10000.0,"2023-11-06 15:39:07+08:00",120.6197,14.9696,35.87,42.87,32.06,35.87,1009.0,65.0,1009.0,1009.0,4.62,78.0,7.02,76.0,"2023-11-06 05:54:52+08:00","2023-11-06 17:27:21+08:00",803.0,"Clouds","broken clouds","04d","2023-11-06 15:48:35.687227+08:00","San Pablo",1.0,8152.0,""
10000.0,"2023-11-06 15:48:37+08:00",121.8833,17.2,30.82,37.41,30.82,30.82,1011.0,71.0,1011.0,1007.0,0.9,101.0,1.8,34.0,"2023-11-06 05:52:30+08:00","2023-11-06 17:19:36+08:00",802.0,"Clouds","scattered clouds","03d","2023-11-06 15:48:37.720656+08:00","San Pedro","","",""
10000.0,"2023-11-06 15:48:40+08:00",120.9378,15.4238,35.71,42.71,35.71,35.71,1009.0,71.0,1009.0,1005.0,3.28,125.0,5.22,28.0,"2023-11-06 05:54:08+08:00","2023-11-06 17:25:32+08:00",802.0,"Clouds","scattered clouds","03d","2023-11-06 15:48:40.100846+08:00","Santa Rosa",1.0,8152.0,""
10000.0,"2023-11-06 15:48:42+08:00",120.4449,17.2939,29.35,34.36,29.35,29.35,1010.0,74.0,1010.0,1008.0,1.63,285.0,1.74,8.0,"2023-11-06 05:58:23+08:00","2023-11-06 17:25:14+08:00",800.0,"Clear","clear sky","01d","2023-11-06 15:48:42.583208+08:00","Santiago","","",""
10000.0,"2023-11-06 15:39:13+08:00",121.7645,17.3997,31.24,37.63,31.24,31.24,1010.0,68.0,1010.0,1007.0,0.72,21.0,1.39,38.0,"2023-11-06 05:53:14+08:00","2023-11-06 17:19:50+08:00",802.0,"Clouds","scattered clouds","03d","2023-11-06 15:48:45.094635+08:00","Santo Tomas","","",""
10000.0,"2023-11-06 15:48:46+08:00",122.9667,10.8,29.28,34.62,29.28,29.28,1008.0,76.0,1008.0,1008.0,6.1,32.0,7.47,35.0,"2023-11-06 05:40:34+08:00","2023-11-06 17:22:53+08:00",802.0,"Clouds","scattered clouds","03d","2023-11-06 15:48:46.746902+08:00","Silay City","","",""
10000.0,"2023-11-06 15:48:48+08:00",122.4042,9.7519,30.13,36.39,30.13,30.13,1008.0,74.0,1008.0,1007.0,3.33,40.0,4.22,73.0,"2023-11-06 05:41:36+08:00","2023-11-06 17:26:20+08:00",803.0,"Clouds","broken clouds","04d","2023-11-06 15:48:48.042554+08:00","Sipalay","","",""
10000.0,"2023-11-06 15:39:19+08:00",125.5,9.75,28.65,32.85,28.65,28.65,1009.0,75.0,1009.0,1002.0,3.31,68.0,4.61,17.0,"2023-11-06 05:29:13+08:00","2023-11-06 17:13:58+08:00",801.0,"Clouds","few clouds","02d","2023-11-06 15:48:49.656626+08:00","Surigao City","","",""
10000.0,"2023-11-06 15:39:20+08:00",123.7336,13.3586,28.5,33.2,28.5,28.5,1010.0,79.0,1010.0,1009.0,2.17,77.0,3.32,39.0,"2023-11-06 05:40:30+08:00","2023-11-06 17:16:49+08:00",802.0,"Clouds","scattered clouds","03d","2023-11-06 15:48:51.178044+08:00","Tabaco","","",""
10000.0,"2023-11-06 15:48:52+08:00",121.4443,17.4189,29.95,34.92,29.95,29.95,1011.0,70.0,1011.0,990.0,1.09,103.0,1.3,10.0,"2023-11-06 05:54:32+08:00","2023-11-06 17:21:05+08:00",800.0,"Clear","clear sky","01d","2023-11-06 15:48:52.737453+08:00","Tabuk","","",""
10000.0,"2023-11-06 15:48:53+08:00",125.0,11.25,28.14,32.78,28.14,28.14,1009.0,82.0,1009.0,1009.0,1.22,202.0,1.91,76.0,"2023-11-06 05:32:57+08:00","2023-11-06 17:14:13+08:00",803.0,"Clouds","broken clouds","04d","2023-11-06 15:48:53.964563+08:00","Tacloban City","","",""
10000.0,"2023-11-06 15:48:56+08:00",124.6764,6.6925,30.06,36.46,30.06,30.06,1007.0,75.0,1007.0,1002.0,0.94,163.0,1.18,86.0,"2023-11-06 05:29:00+08:00","2023-11-06 17:20:45+08:00",804.0,"Clouds","overcast clouds","04d","2023-11-06 15:48:56.117837+08:00","Tacurong","","",""
10000.0,"2023-11-06 15:39:27+08:00",120.9337,14.1059,26.28,26.28,25.86,28.87,1009.0,69.0,1009.0,938.0,3.76,80.0,6.58,32.0,"2023-11-06 05:52:35+08:00","2023-11-06 17:27:08+08:00",802.0,"Clouds","scattered clouds","03d","2023-11-06 15:48:58.155720+08:00","Tagaytay City",2.0,2084056.0,""
10000.0,"2023-11-06 15:49:00+08:00",121.0792,14.5243,32.22,39.22,30.59,33.44,1010.0,70.0,"","",4.47,109.0,8.05,20.0,"2023-11-06 05:52:30+08:00","2023-11-06 17:26:03+08:00",801.0,"Clouds","few clouds","02d","2023-11-06 15:49:00.231967+08:00","Taguig",2.0,2083945.0,""
10000.0,"2023-11-06 15:49:02+08:00",122.9226,14.1343,28.19,32.75,28.19,28.19,1010.0,81.0,1010.0,1008.0,3.71,49.0,5.64,11.0,"2023-11-06 05:44:39+08:00","2023-11-06 17:19:08+08:00",801.0,"Clouds","few clouds","02d","2023-11-06 15:49:02.854365+08:00","Talisay","","",""
10000.0,"2023-11-06 15:49:04+08:00",121.1498,14.0863,29.94,34.66,29.63,32.08,1009.0,69.0,1009.0,992.0,3.3,69.0,5.33,25.0,"2023-11-06 05:51:42+08:00","2023-11-06 17:26:17+08:00",802.0,"Clouds","scattered clouds","03d","2023-11-06 15:49:04.859911+08:00","Tanauan",2.0,2084056.0,""
10000.0,"2023-11-06 15:49:06+08:00",126.1986,9.0783,28.17,32.69,28.17,28.17,1009.0,81.0,1009.0,1008.0,2.84,21.0,4.28,16.0,"2023-11-06 05:25:39+08:00","2023-11-06 17:11:56+08:00",801.0,"Clouds","few clouds","02d","2023-11-06 15:49:06.959243+08:00","Tandag","","",""
10000.0,"2023-11-06 15:39:40+08:00",122.9306,10.6339,29.51,35.22,29.51,29.51,1008.0,76.0,1008.0,1007.0,4.98,23.0,6.34,28.0,"2023-11-06 05:40:31+08:00","2023-11-06 17:23:13+08:00",802.0,"Clouds","scattered clouds","03d","2023-11-06 15:49:09.199242+08:00","Tangub","","",""
10000.0,"2023-11-06 15:39:42+08:00",123.1583,9.5153,31.01,37.93,31.01,31.01,1008.0,71.0,1008.0,1007.0,1.15,64.0,2.31,15.0,"2023-11-06 05:38:19+08:00","2023-11-06 17:23:36+08:00",801.0,"Clouds","few clouds","02d","2023-11-06 15:49:10.650150+08:00","Tanjay",1.0,8185.0,""
10000.0,"2023-11-06 15:39:44+08:00",120.5986,15.4889,35.6,42.6,35.6,35.6,1009.0,69.0,1009.0,1004.0,2.87,145.0,3.6,39.0,"2023-11-06 05:55:34+08:00","2023-11-06 17:26:49+08:00",802.0,"Clouds","scattered clouds","03d","2023-11-06 15:49:12.120171+08:00","Tarlac City",1.0,8152.0,""
10000.0,"2023-11-06 15:39:45+08:00",121.5911,14.0289,29.39,35.37,29.39,29.39,1010.0,78.0,1010.0,987.0,3.21,45.0,6.67,14.0,"2023-11-06 05:49:51+08:00","2023-11-06 17:24:35+08:00",801.0,"Clouds","few clouds","02d","2023-11-06 15:49:14.126707+08:00","Tayabas",2.0,2011004.0,""
10000.0,"2023-11-06 15:49:15+08:00",123.6333,10.3833,32.05,39.05,30.0,32.05,1008.0,72.0,1008.0,1008.0,2.67,17.0,3.4,49.0,"2023-11-06 05:37:25+08:00","2023-11-06 17:20:42+08:00",802.0,"Clouds","scattered clouds","03d","2023-11-06 15:49:15.942448+08:00","Toledo City",1.0,8187.0,""
10000.0,"2023-11-06 15:39:50+08:00",121.7269,17.6131,31.14,37.67,31.14,31.14,1010.0,69.0,1010.0,1007.0,1.82,18.0,1.91,38.0,"2023-11-06 05:53:38+08:00","2023-11-06 17:19:43+08:00",802.0,"Clouds","scattered clouds","03d","2023-11-06 15:49:17.663640+08:00","Tuguegarao","","",""
10000.0,"2023-11-06 15:49:19+08:00",120.5711,15.9761,31.47,38.24,31.47,31.47,1009.0,68.0,1009.0,1005.0,2.28,172.0,4.17,30.0,"2023-11-06 05:56:16+08:00","2023-11-06 17:26:20+08:00",802.0,"Clouds","scattered clouds","03d","2023-11-06 15:49:19.757492+08:00","Urdaneta","","",""
10000.0,"2023-11-06 15:39:54+08:00",124.5725,11.1089,28.85,34.12,28.85,28.85,1009.0,79.0,1009.0,1005.0,1.44,92.0,2.86,24.0,"2023-11-06 05:34:30+08:00","2023-11-06 17:16:06+08:00",801.0,"Clouds","few clouds","02d","2023-11-06 15:49:21.177937+08:00","Valencia","","",""
10000.0,"2023-11-06 15:39:56+08:00",120.9667,14.7,33.33,40.33,29.98,33.95,1010.0,66.0,"","",0.89,189.0,4.47,50.0,"2023-11-06 05:53:09+08:00","2023-11-06 17:26:17+08:00",802.0,"Clouds","scattered clouds","03d","2023-11-06 15:49:23.648736+08:00","Valenzuela",2.0,2008256.0,""
10000.0,"2023-11-06 15:49:25+08:00",123.0778,10.9,29.13,34.23,29.13,29.13,1009.0,76.0,1009.0,1007.0,4.89,40.0,5.96,53.0,"2023-11-06 05:40:14+08:00","2023-11-06 17:22:19+08:00",803.0,"Clouds","broken clouds","04d","2023-11-06 15:49:25.126334+08:00","Victorias","","",""
10000.0,"2023-11-06 15:49:27+08:00",120.3869,17.5747,29.59,34.96,29.59,29.59,1010.0,74.0,1010.0,1008.0,2.02,299.0,2.3,7.0,"2023-11-06 05:58:57+08:00","2023-11-06 17:25:08+08:00",800.0,"Clear","clear sky","01d","2023-11-06 15:49:27.692672+08:00","Vigan","","",""
10000.0,"2023-11-06 15:49:29+08:00",122.0696,6.9135,30.99,37.99,30.99,30.99,1008.0,74.0,"","",2.57,220.0,"",20.0,"2023-11-06 05:39:41+08:00","2023-11-06 17:30:56+08:00",801.0,"Clouds","few clouds","02d","2023-11-06 15:49:29.873464+08:00","Zamboanga City",1.0,8169.0,""
10000.0,"2023-11-06 18:00:01+08:00",119.9811,16.1561,27.88,31.8,27.88,27.88,1010.0,80.0,1010.0,1008.0,2.44,32.0,3.05,93.0,"2023-11-06 05:58:51+08:00","2023-11-06 17:28:29+08:00",804.0,"Clouds","overcast clouds","04n","2023-11-06 18:00:01.370971+08:00","Alaminos","","",""
10000.0,"2023-11-06 18:00:03+08:00",120.5833,15.15,32.25,39.25,32.25,32.25,1010.0,66.0,"","",2.57,100.0,"",20.0,"2023-11-06 05:55:14+08:00","2023-11-06 17:27:17+08:00",801.0,"Clouds","few clouds","02n","2023-11-06 18:00:04.492068+08:00","Angeles City",1.0,8152.0,""
10000.0,"2023-11-06 18:00:08+08:00",121.19,15.6181,26.15,26.15,26.15,26.15,1011.0,79.0,1011.0,1001.0,4.67,78.0,9.91,62.0,"2023-11-06 05:53:22+08:00","2023-11-06 17:24:18+08:00",803.0,"Clouds","broken clouds","04n","2023-11-06 18:00:09.766320+08:00","Antipolo","","",""
10000.0,"2023-11-06 18:00:12+08:00",123.5085,12.2285,27.24,30.84,27.24,27.24,1010.0,85.0,1010.0,1009.0,4.75,58.0,9.11,64.0,"2023-11-06 05:40:04+08:00","2023-11-06 17:19:03+08:00",803.0,"Clouds","broken clouds","04n","2023-11-06 18:00:12.885037+08:00","Bacolod","","",""
10000.0,"2023-11-06 18:00:16+08:00",120.929,14.459000000000001,30.55,37.55,29.5,32.03,1009.0,76.0,"","",4.12,110.0,"",20.0,"2023-11-06 05:53:01+08:00","2023-11-06 17:26:44+08:00",801.0,"Clouds","few clouds","02n","2023-11-06 18:00:17.363956+08:00","Bacoor",2.0,2005706.0,""
10000.0,"2023-11-06 18:00:19+08:00",122.8333,10.5333,28.76,33.49,28.76,28.76,1009.0,77.0,1009.0,1009.0,6.61,30.0,8.61,12.0,"2023-11-06 05:40:47+08:00","2023-11-06 17:23:43+08:00",801.0,"Clouds","few clouds","02n","2023-11-06 18:00:19.164715+08:00","Bago City","","",""
10000.0,"2023-11-06 18:00:31+08:00",120.5931,16.4164,17.32,17.51,17.32,17.32,1012.0,92.0,1012.0,854.0,1.2,96.0,1.11,58.0,"2023-11-06 05:56:43+08:00","2023-11-06 17:25:43+08:00",803.0,"Clouds","broken clouds","04n","2023-11-06 18:00:32.200641+08:00","Baguio","","",""
10000.0,"2023-11-06 18:00:36+08:00",123.1228,9.5911,29.99,36.99,29.99,29.99,1010.0,87.0,1010.0,1009.0,1.51,43.0,1.51,7.0,"2023-11-06 05:38:33+08:00","2023-11-06 17:23:39+08:00",800.0,"Clear","clear sky","01n","2023-11-06 18:00:36.293168+08:00","Bais",1.0,8185.0,""
10000.0,"2023-11-06 18:00:16+08:00",120.5361,14.6761,31.03,38.03,31.03,31.18,1011.0,78.0,1011.0,1010.0,2.76,68.0,4.31,100.0,"2023-11-06 05:54:51+08:00","2023-11-06 17:28:02+08:00",804.0,"Clouds","overcast clouds","04n","2023-11-06 18:00:38.350366+08:00","Balanga",1.0,8151.0,""
10000.0,"2023-11-06 18:00:41+08:00",120.5649,18.0554,30.88,37.88,30.88,30.88,1010.0,84.0,"","",1.03,0.0,"",20.0,"2023-11-06 05:58:50+08:00","2023-11-06 17:23:49+08:00",801.0,"Clouds","few clouds","02n","2023-11-06 18:00:42.096981+08:00","Batac City",1.0,8159.0,""
10000.0,"2023-11-06 18:00:43+08:00",121.05,13.75,27.84,31.7,27.84,27.84,1010.0,80.0,1010.0,1009.0,3.87,103.0,6.41,8.0,"2023-11-06 05:51:42+08:00","2023-11-06 17:27:05+08:00",800.0,"Clear","clear sky","01n","2023-11-06 18:00:43.717168+08:00","Batangas City",2.0,2011004.0,""
10000.0,"2023-11-06 18:00:45+08:00",122.8011,9.3636,26.72,29.53,26.72,26.72,1009.0,85.0,1009.0,1008.0,1.47,38.0,1.61,25.0,"2023-11-06 05:39:34+08:00","2023-11-06 17:25:12+08:00",802.0,"Clouds","scattered clouds","03n","2023-11-06 18:00:45.746624+08:00","Bayawan","","",""
10000.0,"2023-11-06 18:00:47+08:00",123.7135,13.4083,26.24,26.24,26.24,26.24,1011.0,91.0,1011.0,1011.0,1.87,59.0,3.21,30.0,"2023-11-06 05:40:38+08:00","2023-11-06 17:16:50+08:00",802.0,"Clouds","scattered clouds","03n","2023-11-06 18:00:47.464455+08:00","Baybay","","",""
10000.0,"2023-11-06 18:00:50+08:00",125.7675,8.7561,25.43,26.59,25.43,25.43,1011.0,98.0,1011.0,1003.0,1.68,53.0,1.61,18.0,"2023-11-06 05:27:00+08:00","2023-11-06 17:14:02+08:00",801.0,"Clouds","few clouds","02n","2023-11-06 18:00:51.111862+08:00","Bayugan","","",""
10000.0,"2023-11-06 18:00:52+08:00",125.0336,11.0725,26.44,26.44,26.44,26.44,1010.0,86.0,1010.0,1009.0,1.56,49.0,3.21,88.0,"2023-11-06 05:32:37+08:00","2023-11-06 17:14:18+08:00",804.0,"Clouds","overcast clouds","04n","2023-11-06 18:00:52.994504+08:00","Bislig","","",""
10000.0,"2023-11-06 18:00:55+08:00",121.0807,14.3427,30.21,37.21,29.49,32.02,1010.0,77.0,"","",4.92,90.0,6.26,20.0,"2023-11-06 05:52:16+08:00","2023-11-06 17:26:15+08:00",801.0,"Clouds","few clouds","02n","2023-11-06 18:00:55.570475+08:00","Biñan",2.0,2084056.0,""
10000.0,"2023-11-06 18:00:58+08:00",124.0055,11.0517,28.98,34.47,28.98,28.98,1009.0,79.0,1009.0,1008.0,3.98,39.0,4.81,20.0,"2023-11-06 05:36:42+08:00","2023-11-06 17:18:26+08:00",801.0,"Clouds","few clouds","02n","2023-11-06 18:00:58.081014+08:00","Bogo","","",""
10000.0,"2023-11-06 18:00:59+08:00",125.4319,11.6081,25.19,26.32,25.19,25.19,1011.0,98.0,1011.0,1010.0,1.14,56.0,2.51,62.0,"2023-11-06 05:31:39+08:00","2023-11-06 17:12:05+08:00",803.0,"Clouds","broken clouds","04n","2023-11-06 18:00:59.900890+08:00","Borongan","","",""
10000.0,"2023-11-06 18:01:01+08:00",125.5436,8.9492,26.65,26.65,26.65,26.65,1009.0,88.0,1009.0,1008.0,0.08,137.0,0.81,59.0,"2023-11-06 05:28:07+08:00","2023-11-06 17:14:42+08:00",803.0,"Clouds","broken clouds","04n","2023-11-06 18:01:01.749275+08:00","Butuan","","",""
4953.0,"2023-11-06 18:01:03+08:00",125.5344,9.1236,26.74,29.75,26.74,26.74,1009.0,87.0,1009.0,1008.0,3.15,50.0,3.61,13.0,"2023-11-06 05:28:21+08:00","2023-11-06 17:14:33+08:00",801.0,"Clouds","few clouds","02n","2023-11-06 18:01:03.344478+08:00","Cabadbaran","","",""
10000.0,"2023-11-06 18:01:05+08:00",120.9667,15.4833,26.45,26.45,26.45,26.45,1010.0,84.0,1010.0,1006.0,2.42,142.0,4.01,39.0,"2023-11-06 05:54:06+08:00","2023-11-06 17:25:21+08:00",802.0,"Clouds","scattered clouds","03n","2023-11-06 18:01:05.441849+08:00","Cabanatuan City","","",""
10000.0,"2023-11-06 18:00:19+08:00",121.1262,14.2726,30.15,37.15,29.43,31.96,1010.0,81.0,1010.0,1008.0,5.84,111.0,7.61,21.0,"2023-11-06 05:52:00+08:00","2023-11-06 17:26:10+08:00",801.0,"Clouds","few clouds","02n","2023-11-06 18:01:07.017620+08:00","Cabuyao",2.0,2084056.0,""
10000.0,"2023-11-06 18:01:09+08:00",123.2856,10.9506,27.92,32.05,27.92,27.92,1010.0,81.0,1010.0,1010.0,3.16,47.0,4.19,62.0,"2023-11-06 05:39:28+08:00","2023-11-06 17:21:26+08:00",803.0,"Clouds","broken clouds","04n","2023-11-06 18:01:09.416677+08:00","Cadiz","","",""
10000.0,"2023-11-06 18:00:09+08:00",124.6472,8.4822,26.93,29.86,26.93,26.93,1009.0,83.0,1009.0,1008.0,0.35,133.0,0.41,24.0,"2023-11-06 05:31:10+08:00","2023-11-06 17:18:50+08:00",801.0,"Clouds","few clouds","02n","2023-11-06 18:01:10.997951+08:00","Cagayan de Oro","","",""
10000.0,"2023-11-06 18:01:13+08:00",120.8133,13.9324,27.16,30.41,27.16,27.16,1010.0,83.0,1010.0,1007.0,2.88,93.0,4.45,33.0,"2023-11-06 05:52:51+08:00","2023-11-06 17:27:49+08:00",802.0,"Clouds","scattered clouds","03n","2023-11-06 18:01:13.394481+08:00","Calaca","","",""
10000.0,"2023-11-06 18:01:15+08:00",121.1653,14.2117,29.42,36.42,29.39,31.97,1011.0,83.0,1011.0,1009.0,3.86,87.0,7.63,10.0,"2023-11-06 05:51:47+08:00","2023-11-06 17:26:05+08:00",800.0,"Clear","clear sky","01n","2023-11-06 18:01:15.361442+08:00","Calamba",2.0,2084056.0,""
10000.0,"2023-11-06 18:01:17+08:00",121.1803,13.4117,27.84,32.45,27.84,27.84,1011.0,85.0,1011.0,1010.0,3.68,68.0,6.0,37.0,"2023-11-06 05:50:46+08:00","2023-11-06 17:26:58+08:00",802.0,"Clouds","scattered clouds","03n","2023-11-06 18:01:17.423745+08:00","Calapan",2.0,2011004.0,""
10000.0,"2023-11-06 18:01:19+08:00",124.6,12.0667,26.72,29.78,26.72,26.72,1010.0,88.0,1010.0,1009.0,2.92,61.0,6.26,89.0,"2023-11-06 05:35:30+08:00","2023-11-06 17:14:52+08:00",804.0,"Clouds","overcast clouds","04n","2023-11-06 18:01:19.419335+08:00","Calbayog City","","",""
10000.0,"2023-11-06 18:01:20+08:00",120.9667,14.65,31.1,38.1,29.45,32.03,1010.0,72.0,"","",4.12,110.0,"",20.0,"2023-11-06 05:53:06+08:00","2023-11-06 17:26:21+08:00",801.0,"Clouds","few clouds","02n","2023-11-06 18:01:20.588949+08:00","Caloocan City",2.0,2008256.0,""
10000.0,"2023-11-06 18:01:22+08:00",120.4517,17.1947,27.31,30.78,27.31,27.31,1011.0,83.0,1011.0,1010.0,0.71,1.0,1.03,13.0,"2023-11-06 05:58:14+08:00","2023-11-06 17:25:20+08:00",801.0,"Clouds","few clouds","02n","2023-11-06 18:01:22.443931+08:00","Candon","","",""
10000.0,"2023-11-06 18:01:24+08:00",123.1964,10.3864,23.18,23.88,23.18,23.18,1010.0,89.0,1010.0,949.0,1.6,63.0,1.91,41.0,"2023-11-06 05:39:10+08:00","2023-11-06 17:22:26+08:00",802.0,"Clouds","scattered clouds","03n","2023-11-06 18:01:24.918387+08:00","Canlaon","","",""
10000.0,"2023-11-06 18:01:26+08:00",123.6402,10.1061,28.98,34.26,28.98,28.98,1009.0,78.0,1009.0,1008.0,2.53,49.0,2.92,29.0,"2023-11-06 05:37:04+08:00","2023-11-06 17:20:59+08:00",802.0,"Clouds","scattered clouds","03n","2023-11-06 18:01:26.506143+08:00","Carcar",1.0,8187.0,""
10000.0,"2023-11-06 18:01:28+08:00",121.0576,14.3132,29.88,36.88,29.32,31.9,1011.0,81.0,"","",3.58,90.0,3.58,11.0,"2023-11-06 05:52:20+08:00","2023-11-06 17:26:23+08:00",801.0,"Clouds","few clouds","02n","2023-11-06 18:01:28.931295+08:00","Carmona",2.0,2084056.0,""
10000.0,"2023-11-06 18:01:30+08:00",124.8861,11.7753,26.8,29.64,26.8,26.8,1010.0,84.0,1010.0,1005.0,3.46,69.0,5.84,65.0,"2023-11-06 05:34:01+08:00","2023-11-06 17:14:04+08:00",803.0,"Clouds","broken clouds","04n","2023-11-06 18:01:30.453065+08:00","Catbalogan","","",""
10000.0,"2023-11-06 18:01:32+08:00",121.7725,16.9347,26.09,26.09,26.09,26.09,1012.0,83.0,1012.0,1005.0,3.43,98.0,7.73,16.0,"2023-11-06 05:52:38+08:00","2023-11-06 17:20:22+08:00",801.0,"Clouds","few clouds","02n","2023-11-06 18:01:32.612329+08:00","Cauayan","","",""
10000.0,"2023-11-06 18:01:34+08:00",120.9169,14.4825,30.7,37.7,29.47,32.05,1009.0,76.0,"","",4.12,110.0,"",20.0,"2023-11-06 05:53:06+08:00","2023-11-06 17:26:45+08:00",801.0,"Clouds","few clouds","02n","2023-11-06 18:01:35.041315+08:00","Cavite City",1.0,8160.0,""
10000.0,"2023-11-06 17:59:55+08:00",123.8907,10.3167,28.81,35.06,28.65,28.81,1010.0,84.0,"","",3.09,40.0,"",75.0,"2023-11-06 05:36:19+08:00","2023-11-06 17:19:45+08:00",803.0,"Clouds","broken clouds","04n","2023-11-06 18:01:36.246809+08:00","Cebu City",1.0,8187.0,""
10000.0,"2023-11-06 18:00:14+08:00",121.1,14.6333,30.95,37.95,29.45,31.98,1009.0,72.0,"","",4.12,110.0,"",20.0,"2023-11-06 05:52:33+08:00","2023-11-06 17:25:50+08:00",801.0,"Clouds","few clouds","02n","2023-11-06 18:01:38.370344+08:00","City of Marikina",2.0,2008256.0,""
10000.0,"2023-11-06 18:01:40+08:00",123.5833,12.3333,27.29,30.97,27.29,27.29,1010.0,85.0,1010.0,1006.0,4.55,59.0,8.13,59.0,"2023-11-06 05:39:53+08:00","2023-11-06 17:18:37+08:00",803.0,"Clouds","broken clouds","04n","2023-11-06 18:01:40.158138+08:00","City of Masbate","","",""
10000.0,"2023-11-06 18:01:41+08:00",122.65,11.15,27.57,32.13,27.57,27.57,1010.0,88.0,1010.0,1004.0,2.21,7.0,2.94,23.0,"2023-11-06 05:42:14+08:00","2023-11-06 17:23:44+08:00",801.0,"Clouds","few clouds","02n","2023-11-06 18:01:42.014111+08:00","City of Passi",2.0,2073369.0,""
10000.0,"2023-11-06 18:01:43+08:00",123.9833,12.9833,26.89,30.23,26.89,26.89,1010.0,88.0,1010.0,1005.0,3.49,55.0,6.24,72.0,"2023-11-06 05:39:03+08:00","2023-11-06 17:16:16+08:00",803.0,"Clouds","broken clouds","04n","2023-11-06 18:01:43.160266+08:00","City of Sorsogon","","",""
10000.0,"2023-11-06 18:01:45+08:00",124.2464,7.2236,26.18,26.18,26.18,26.18,1009.0,89.0,1009.0,1008.0,2.1,269.0,4.12,65.0,"2023-11-06 05:31:20+08:00","2023-11-06 17:21:52+08:00",803.0,"Clouds","broken clouds","04n","2023-11-06 18:01:45.627339+08:00","Cotabato","","",""
10000.0,"2023-11-06 18:01:47+08:00",121.5047,17.7061,26.14,26.14,26.14,26.14,1012.0,88.0,1012.0,1007.0,2.76,8.0,3.75,18.0,"2023-11-06 05:54:39+08:00","2023-11-06 17:20:30+08:00",801.0,"Clouds","few clouds","02n","2023-11-06 18:01:47.713832+08:00","Dagupan","","",""
10000.0,"2023-11-06 18:01:48+08:00",124.0272,10.5208,28.87,34.59,28.87,29.03,1010.0,81.0,1010.0,1009.0,2.68,9.0,3.13,54.0,"2023-11-06 05:36:00+08:00","2023-11-06 17:18:58+08:00",803.0,"Clouds","broken clouds","04n","2023-11-06 18:01:48.844553+08:00","Danao",2.0,2089763.0,""
10000.0,"2023-11-06 18:01:49+08:00",123.9469,10.2706,29.03,35.73,28.87,29.03,1010.0,84.0,"","",3.09,40.0,"",75.0,"2023-11-06 05:36:02+08:00","2023-11-06 17:19:34+08:00",803.0,"Clouds","broken clouds","04n","2023-11-06 18:01:50.361281+08:00","Dapitan",1.0,8187.0,""
10000.0,"2023-11-06 18:01:52+08:00",120.9367,14.3294,29.59,36.59,28.95,31.53,1011.0,82.0,1011.0,1001.0,4.98,102.0,8.74,13.0,"2023-11-06 05:52:50+08:00","2023-11-06 17:26:51+08:00",801.0,"Clouds","few clouds","02n","2023-11-06 18:01:52.362115+08:00","Dasmariñas",2.0,2084056.0,""
10000.0,"2023-11-06 18:01:53+08:00",125.6128,7.0731,31.05,36.56,31.05,31.05,1008.0,66.0,"","",3.09,180.0,"",20.0,"2023-11-06 05:25:42+08:00","2023-11-06 17:16:35+08:00",801.0,"Clouds","few clouds","02n","2023-11-06 18:01:53.978000+08:00","Davao",1.0,8154.0,""
10000.0,"2023-11-06 18:01:55+08:00",125.3572,6.7497,26.79,29.7,26.79,26.79,1009.0,85.0,1009.0,1007.0,1.8,110.0,2.32,22.0,"2023-11-06 05:26:21+08:00","2023-11-06 17:17:58+08:00",801.0,"Clouds","few clouds","02n","2023-11-06 18:01:55.664955+08:00","Digos","","",""
10000.0,"2023-11-06 18:01:58+08:00",123.3414,8.5894,27.63,31.73,27.63,27.63,1009.0,84.0,1009.0,1008.0,3.14,74.0,4.77,43.0,"2023-11-06 05:36:31+08:00","2023-11-06 17:23:56+08:00",802.0,"Clouds","scattered clouds","03n","2023-11-06 18:01:58.315249+08:00","Dipolog","","",""
10000.0,"2023-11-06 18:02:00+08:00",123.3081,9.3103,29.99,36.01,29.99,29.99,1009.0,74.0,"","",2.06,290.0,"",20.0,"2023-11-06 05:37:29+08:00","2023-11-06 17:23:14+08:00",801.0,"Clouds","few clouds","02n","2023-11-06 18:02:00.495712+08:00","Dumaguete",1.0,8185.0,""
10000.0,"2023-11-06 18:02:02+08:00",124.5225,8.5631,27.68,31.18,27.68,27.68,1009.0,79.0,1009.0,1009.0,0.47,101.0,1.01,20.0,"2023-11-06 05:31:46+08:00","2023-11-06 17:19:14+08:00",801.0,"Clouds","few clouds","02n","2023-11-06 18:02:02.729917+08:00","El Salvador","","",""
10000.0,"2023-11-06 18:02:05+08:00",123.4992,10.8403,27.83,31.54,27.83,27.83,1010.0,79.0,1010.0,1007.0,2.91,9.0,3.86,47.0,"2023-11-06 05:38:29+08:00","2023-11-06 17:20:42+08:00",802.0,"Clouds","scattered clouds","03n","2023-11-06 18:02:05.361743+08:00","Escalante","","",""
10000.0,"2023-11-06 18:02:07+08:00",120.9464,15.3072,32.74,39.74,32.74,32.74,1010.0,77.0,1010.0,1008.0,3.38,108.0,7.0,30.0,"2023-11-06 05:53:58+08:00","2023-11-06 17:25:39+08:00",802.0,"Clouds","scattered clouds","03n","2023-11-06 18:02:07.815752+08:00","Gapan",1.0,8152.0,""
10000.0,"2023-11-06 18:02:09+08:00",125.1717,6.1128,30.88,37.28,30.88,30.88,1008.0,70.0,"","",1.54,180.0,"",20.0,"2023-11-06 05:26:22+08:00","2023-11-06 17:19:26+08:00",801.0,"Clouds","few clouds","02n","2023-11-06 18:02:09.677895+08:00","General Santos",1.0,8162.0,""
10000.0,"2023-11-06 18:02:12+08:00",120.8817,14.3869,30.14,37.14,29.36,31.94,1010.0,80.0,1010.0,1008.0,5.44,105.0,8.63,17.0,"2023-11-06 05:53:07+08:00","2023-11-06 17:27:00+08:00",801.0,"Clouds","few clouds","02n","2023-11-06 18:02:12.103502+08:00","General Trias",2.0,2084056.0,""
10000.0,"2023-11-06 18:02:14+08:00",125.1167,8.8333,26.78,30.21,26.78,26.78,1011.0,91.0,1011.0,1011.0,0.37,171.0,1.28,49.0,"2023-11-06 05:29:42+08:00","2023-11-06 17:16:33+08:00",802.0,"Clouds","scattered clouds","03n","2023-11-06 18:02:14.127454+08:00","Gingoog City","","",""
10000.0,"2023-11-06 18:02:16+08:00",122.8706,10.0989,27.45,31.26,27.45,27.45,1010.0,84.0,1010.0,1009.0,2.52,31.0,3.1,23.0,"2023-11-06 05:40:08+08:00","2023-11-06 17:24:04+08:00",801.0,"Clouds","few clouds","02n","2023-11-06 18:02:16.193712+08:00","Himamaylan","","",""
10000.0,"2023-11-06 18:02:18+08:00",121.8892,17.1485,26.34,26.34,26.34,26.34,1012.0,84.0,1012.0,1007.0,2.22,92.0,4.35,18.0,"2023-11-06 05:52:25+08:00","2023-11-06 17:19:39+08:00",801.0,"Clouds","few clouds","02n","2023-11-06 18:02:18.596556+08:00","Ilagan","","",""
10000.0,"2023-11-06 18:02:19+08:00",124.4,8.25,24.31,25.22,24.31,24.31,1010.0,93.0,1010.0,977.0,0.63,126.0,0.59,54.0,"2023-11-06 05:31:54+08:00","2023-11-06 17:20:05+08:00",803.0,"Clouds","broken clouds","04n","2023-11-06 18:02:19.972046+08:00","Iligan City","","",""
10000.0,"2023-11-06 18:02:21+08:00",122.55,10.75,27.25,30.52,27.25,27.25,1009.0,82.0,1009.0,1008.0,4.22,23.0,8.21,44.0,"2023-11-06 05:42:11+08:00","2023-11-06 17:24:36+08:00",802.0,"Clouds","scattered clouds","03n","2023-11-06 18:02:21.454448+08:00","Iloilo City","","",""
10000.0,"2023-11-06 18:02:22+08:00",120.9367,14.4297,30.29,37.29,29.43,32.0,1009.0,77.0,"","",4.12,110.0,"",20.0,"2023-11-06 05:52:57+08:00","2023-11-06 17:26:44+08:00",801.0,"Clouds","few clouds","02n","2023-11-06 18:02:22.850938+08:00","Imus",2.0,2037715.0,""
10000.0,"2023-11-06 18:02:25+08:00",123.4167,13.4167,26.09,26.09,26.09,26.09,1011.0,91.0,1011.0,1008.0,1.6,61.0,2.6,33.0,"2023-11-06 05:41:50+08:00","2023-11-06 17:18:01+08:00",802.0,"Clouds","scattered clouds","03n","2023-11-06 18:02:25.677193+08:00","Iriga City","","",""
10000.0,"2023-11-06 18:02:27+08:00",122.9888,10.2048,26.75,29.6,26.75,26.75,1010.0,85.0,1010.0,1006.0,1.78,74.0,2.08,26.0,"2023-11-06 05:39:47+08:00","2023-11-06 17:23:29+08:00",802.0,"Clouds","scattered clouds","03n","2023-11-06 18:02:27.224899+08:00","Isabela","","",""
10000.0,"2023-11-06 18:02:29+08:00",122.8122,9.9889,27.38,31.2,27.38,27.38,1010.0,85.0,1010.0,1008.0,2.01,20.0,2.72,22.0,"2023-11-06 05:40:15+08:00","2023-11-06 17:24:26+08:00",801.0,"Clouds","few clouds","02n","2023-11-06 18:02:29.940684+08:00","Kabankalan","","",""
10000.0,"2023-11-06 18:02:31+08:00",125.0894,7.0083,24.71,25.56,24.71,24.71,1010.0,89.0,1010.0,980.0,1.07,107.0,1.64,44.0,"2023-11-06 05:27:43+08:00","2023-11-06 17:18:45+08:00",802.0,"Clouds","scattered clouds","03n","2023-11-06 18:02:31.978083+08:00","Kidapawan","","",""
10000.0,"2023-11-06 18:00:43+08:00",124.8469,6.5031,26.33,26.33,26.33,26.33,1009.0,83.0,1009.0,1002.0,0.63,184.0,0.91,82.0,"2023-11-06 05:28:07+08:00","2023-11-06 17:20:17+08:00",803.0,"Clouds","broken clouds","04n","2023-11-06 18:02:33.329650+08:00","Koronadal","","",""
10000.0,"2023-11-06 18:02:35+08:00",122.9208,10.4233,27.24,30.61,27.24,27.24,1009.0,83.0,1009.0,1006.0,2.82,40.0,3.83,20.0,"2023-11-06 05:40:19+08:00","2023-11-06 17:23:30+08:00",801.0,"Clouds","few clouds","02n","2023-11-06 18:02:35.520411+08:00","La Carlota","","",""
10000.0,"2023-11-06 18:02:37+08:00",125.7022,6.0872,28.17,32.36,28.17,28.17,1010.0,79.0,1010.0,1008.0,1.7,69.0,2.62,59.0,"2023-11-06 05:24:13+08:00","2023-11-06 17:17:21+08:00",803.0,"Clouds","broken clouds","04n","2023-11-06 18:02:37.210670+08:00","Lamitan","","",""
10000.0,"2023-11-06 18:02:39+08:00",120.5936,18.1989,30.95,37.95,30.95,30.95,1010.0,84.0,"","",1.03,0.0,"",20.0,"2023-11-06 05:58:54+08:00","2023-11-06 17:23:32+08:00",801.0,"Clouds","few clouds","02n","2023-11-06 18:02:39.488919+08:00","Laoag",1.0,8159.0,""
10000.0,"2023-11-06 18:02:41+08:00",123.9494,10.3103,29.02,35.7,28.86,29.02,1010.0,84.0,"","",3.09,40.0,"",75.0,"2023-11-06 05:36:04+08:00","2023-11-06 17:19:31+08:00",803.0,"Clouds","broken clouds","04n","2023-11-06 18:02:41.814498+08:00","Lapu-Lapu City",1.0,8187.0,""
10000.0,"2023-11-06 18:02:43+08:00",120.9828,14.4506,30.28,37.28,29.39,31.96,1011.0,77.0,"","",4.47,114.0,5.36,20.0,"2023-11-06 05:52:48+08:00","2023-11-06 17:26:31+08:00",801.0,"Clouds","few clouds","02n","2023-11-06 18:02:43.396015+08:00","Las Piñas",2.0,2005706.0,""
10000.0,"2023-11-06 18:02:44+08:00",123.7333,13.1333,26.66,26.66,26.66,26.66,1011.0,88.0,1011.0,1008.0,2.36,56.0,4.87,74.0,"2023-11-06 05:40:14+08:00","2023-11-06 17:17:05+08:00",803.0,"Clouds","broken clouds","04n","2023-11-06 18:02:44.900805+08:00","Legazpi City","","",""
10000.0,"2023-11-06 18:02:46+08:00",123.5325,13.2403,25.63,26.68,25.63,25.63,1011.0,93.0,1011.0,1005.0,1.71,66.0,2.54,54.0,"2023-11-06 05:41:09+08:00","2023-11-06 17:17:46+08:00",803.0,"Clouds","broken clouds","04n","2023-11-06 18:02:46.226378+08:00","Ligao","","",""
10000.0,"2023-11-06 18:02:47+08:00",121.1667,13.95,25.81,26.77,25.81,25.81,1011.0,89.0,1011.0,974.0,1.67,45.0,3.87,18.0,"2023-11-06 05:51:28+08:00","2023-11-06 17:26:23+08:00",801.0,"Clouds","few clouds","02n","2023-11-06 18:02:47.927754+08:00","Lipa City",2.0,2011004.0,""
10000.0,"2023-11-06 18:02:49+08:00",122.5967,10.8794,26.93,29.95,26.93,26.93,1009.0,84.0,1009.0,1007.0,3.79,17.0,6.5,36.0,"2023-11-06 05:42:08+08:00","2023-11-06 17:24:16+08:00",802.0,"Clouds","scattered clouds","03n","2023-11-06 18:02:49.116466+08:00","Lucena","","",""
10000.0,"2023-11-06 18:02:51+08:00",122.4347,10.8925,26.02,26.02,26.02,26.02,1010.0,87.0,1010.0,1000.0,2.87,12.0,5.88,50.0,"2023-11-06 05:42:48+08:00","2023-11-06 17:24:54+08:00",802.0,"Clouds","scattered clouds","03n","2023-11-06 18:02:51.598117+08:00","Maasin","","",""
10000.0,"2023-11-06 18:02:53+08:00",120.5736,15.2216,32.21,39.21,32.21,32.21,1010.0,66.0,"","",2.57,100.0,"",20.0,"2023-11-06 05:55:21+08:00","2023-11-06 17:27:14+08:00",801.0,"Clouds","few clouds","02n","2023-11-06 18:02:53.633178+08:00","Mabalacat City",1.0,8152.0,""
10000.0,"2023-11-06 17:58:03+08:00",121.0327,14.5503,30.92,37.92,29.37,31.9,1011.0,74.0,"","",4.12,110.0,"",20.0,"2023-11-06 05:52:43+08:00","2023-11-06 17:26:12+08:00",801.0,"Clouds","few clouds","02n","2023-11-06 18:02:55.742060+08:00","Makati City",1.0,8160.0,""
10000.0,"2023-11-06 18:02:57+08:00",119.9379,15.6361,27.87,32.38,27.87,27.87,1011.0,84.0,1011.0,1010.0,0.97,329.0,1.14,85.0,"2023-11-06 05:58:24+08:00","2023-11-06 17:29:17+08:00",804.0,"Clouds","overcast clouds","04n","2023-11-06 18:02:57.412278+08:00","Malabon","","",""
10000.0,"2023-11-06 18:02:59+08:00",125.0833,8.15,21.34,21.98,21.34,21.34,1012.0,94.0,1012.0,921.0,0.55,350.0,1.09,69.0,"2023-11-06 05:29:03+08:00","2023-11-06 17:17:28+08:00",803.0,"Clouds","broken clouds","04n","2023-11-06 18:02:59.220616+08:00","Malaybalay","","",""
10000.0,"2023-11-06 18:03:01+08:00",120.8117,14.8419,31.21,38.21,30.07,32.85,1010.0,74.0,1010.0,1009.0,3.96,64.0,7.32,58.0,"2023-11-06 05:53:57+08:00","2023-11-06 17:26:44+08:00",803.0,"Clouds","broken clouds","04n","2023-11-06 18:03:01.308336+08:00","Malolos",2.0,2008256.0,""
10000.0,"2023-11-06 18:03:03+08:00",121.0409,14.5832,30.84,37.84,29.34,31.91,1010.0,74.0,"","",4.47,114.0,5.36,20.0,"2023-11-06 05:52:43+08:00","2023-11-06 17:26:08+08:00",801.0,"Clouds","few clouds","02n","2023-11-06 18:03:03.726162+08:00","Mandaluyong City",1.0,8160.0,""
10000.0,"2023-11-06 18:00:26+08:00",123.9333,10.3333,28.98,35.58,28.83,28.98,1010.0,84.0,"","",3.09,40.0,"",75.0,"2023-11-06 05:36:09+08:00","2023-11-06 17:19:33+08:00",803.0,"Clouds","broken clouds","04n","2023-11-06 18:03:05.726718+08:00","Mandaue City",1.0,8187.0,""
10000.0,"2023-11-06 17:58:09+08:00",120.9822,14.6042,31.1,38.1,29.47,32.0,1010.0,73.0,"","",4.12,110.0,"",20.0,"2023-11-06 05:52:59+08:00","2023-11-06 17:26:20+08:00",801.0,"Clouds","few clouds","02n","2023-11-06 18:03:06.916973+08:00","Manila",2.0,2008256.0,""
10000.0,"2023-11-06 18:03:08+08:00",124.2928,7.9986,21.77,22.48,21.77,21.77,1011.0,95.0,1011.0,931.0,0.7,16.0,0.86,59.0,"2023-11-06 05:32:02+08:00","2023-11-06 17:20:48+08:00",803.0,"Clouds","broken clouds","04n","2023-11-06 18:03:08.727327+08:00","Marawi","","",""
10000.0,"2023-11-06 18:03:10+08:00",125.4708,9.7339,27.27,30.35,27.27,27.27,1010.0,80.0,1010.0,1001.0,3.39,66.0,5.64,28.0,"2023-11-06 05:29:19+08:00","2023-11-06 17:14:06+08:00",802.0,"Clouds","scattered clouds","03n","2023-11-06 18:03:10.168149+08:00","Mati","","",""
10000.0,"2023-11-06 18:03:12+08:00",120.9608,14.7369,31.11,38.11,29.45,32.02,1011.0,71.0,"","",1.34,90.0,4.47,48.0,"2023-11-06 05:53:13+08:00","2023-11-06 17:26:16+08:00",802.0,"Clouds","scattered clouds","03n","2023-11-06 18:03:12.494320+08:00","Meycauayan",2.0,2008256.0,""
10000.0,"2023-11-06 18:03:14+08:00",120.9031,15.7161,26.37,26.37,26.37,26.37,1011.0,78.0,1011.0,1003.0,4.04,94.0,9.19,59.0,"2023-11-06 05:54:38+08:00","2023-11-06 17:25:19+08:00",803.0,"Clouds","broken clouds","04n","2023-11-06 18:03:14.625586+08:00","Muñoz","","",""
10000.0,"2023-11-06 18:03:16+08:00",123.1814,13.6192,26.47,26.47,26.47,26.47,1010.0,89.0,1010.0,1010.0,2.8,47.0,4.82,20.0,"2023-11-06 05:43:01+08:00","2023-11-06 17:18:43+08:00",801.0,"Clouds","few clouds","02n","2023-11-06 18:03:16.617551+08:00","Naga","","",""
10000.0,"2023-11-06 18:03:18+08:00",120.95,14.6667,31.11,38.11,29.45,32.03,1010.0,71.0,"","",4.12,110.0,"",20.0,"2023-11-06 05:53:11+08:00","2023-11-06 17:26:24+08:00",801.0,"Clouds","few clouds","02n","2023-11-06 18:03:18.546341+08:00","Navotas",2.0,2008256.0,""
10000.0,"2023-11-06 18:03:20+08:00",120.2828,14.8292,31.03,36.51,31.03,32.84,1010.0,66.0,"","",5.14,90.0,"",20.0,"2023-11-06 05:56:03+08:00","2023-11-06 17:28:52+08:00",801.0,"Clouds","few clouds","02n","2023-11-06 18:03:20.292576+08:00","Olongapo",1.0,8151.0,""
10000.0,"2023-11-06 18:03:22+08:00",124.6075,11.0064,26.61,26.61,26.61,26.61,1010.0,86.0,1010.0,1009.0,1.5,92.0,1.88,42.0,"2023-11-06 05:34:14+08:00","2023-11-06 17:16:05+08:00",802.0,"Clouds","scattered clouds","03n","2023-11-06 18:03:22.438193+08:00","Ormoc","","",""
10000.0,"2023-11-06 18:03:24+08:00",123.8044,8.4858,26.41,26.41,26.41,26.41,1009.0,88.0,1009.0,1009.0,1.02,12.0,1.56,13.0,"2023-11-06 05:34:33+08:00","2023-11-06 17:22:12+08:00",801.0,"Clouds","few clouds","02n","2023-11-06 18:03:24.292539+08:00","Oroquieta","","",""
10000.0,"2023-11-06 18:03:25+08:00",123.8333,8.15,26.23,26.23,26.23,26.23,1010.0,91.0,1010.0,1009.0,0.87,4.0,1.17,39.0,"2023-11-06 05:34:03+08:00","2023-11-06 17:22:28+08:00",802.0,"Clouds","scattered clouds","03n","2023-11-06 18:03:26.031181+08:00","Ozamiz City","","",""
10000.0,"2023-11-06 18:03:27+08:00",123.43700000000001,7.8257,27.09,30.14,27.09,27.09,1009.0,82.0,1009.0,1006.0,0.55,144.0,0.77,36.0,"2023-11-06 05:35:16+08:00","2023-11-06 17:24:25+08:00",802.0,"Clouds","scattered clouds","03n","2023-11-06 18:03:27.878951+08:00","Pagadian","","",""
10000.0,"2023-11-06 18:03:30+08:00",121.0833,15.55,26.2,26.2,26.2,26.2,1011.0,84.0,1011.0,1005.0,2.83,81.0,4.53,40.0,"2023-11-06 05:53:42+08:00","2023-11-06 17:24:48+08:00",802.0,"Clouds","scattered clouds","03n","2023-11-06 18:03:30.230034+08:00","Palayan City","","",""
10000.0,"2023-11-06 18:03:32+08:00",125.6842,7.3081,31.06,38.06,31.06,31.06,1009.0,83.0,1009.0,1008.0,2.11,206.0,2.34,56.0,"2023-11-06 05:25:41+08:00","2023-11-06 17:16:01+08:00",803.0,"Clouds","broken clouds","04n","2023-11-06 18:03:32.278474+08:00","Panabo",1.0,8154.0,""
10000.0,"2023-11-06 18:03:34+08:00",121.0175,14.4816,30.42,37.42,29.36,31.94,1011.0,76.0,"","",4.47,114.0,5.36,20.0,"2023-11-06 05:52:42+08:00","2023-11-06 17:26:21+08:00",801.0,"Clouds","few clouds","02n","2023-11-06 18:03:34.642848+08:00","Paranaque City",2.0,2005706.0,""
10000.0,"2023-11-06 18:03:35+08:00",121.065,14.587,30.76,37.76,29.27,31.84,1009.0,74.0,"","",4.12,110.0,"",20.0,"2023-11-06 05:52:38+08:00","2023-11-06 17:26:02+08:00",801.0,"Clouds","few clouds","02n","2023-11-06 18:03:36.121453+08:00","Pasig",1.0,8160.0,""
10000.0,"2023-11-06 18:03:38+08:00",118.7333,9.7333,28.04,33.7,28.04,28.04,1009.0,89.0,"","",2.06,180.0,"",75.0,"2023-11-06 05:56:16+08:00","2023-11-06 17:41:03+08:00",803.0,"Clouds","broken clouds","04n","2023-11-06 18:03:38.576924+08:00","Puerto Princesa City",1.0,8186.0,""
10000.0,"2023-11-06 18:03:40+08:00",121.0333,14.6333,30.86,37.82,29.26,31.83,1010.0,72.0,"","",4.12,110.0,"",20.0,"2023-11-06 05:52:49+08:00","2023-11-06 17:26:06+08:00",801.0,"Clouds","few clouds","02n","2023-11-06 18:03:40.864183+08:00","Quezon City",2.0,2008256.0,""
10000.0,"2023-11-06 18:03:43+08:00",121.6201,17.1189,26.62,26.62,26.62,26.62,1012.0,83.0,1012.0,1005.0,1.02,127.0,3.47,20.0,"2023-11-06 05:53:28+08:00","2023-11-06 17:20:45+08:00",801.0,"Clouds","few clouds","02n","2023-11-06 18:03:43.347439+08:00","Roxas","","",""
10000.0,"2023-11-06 18:03:44+08:00",123.4242,10.9447,28.4,32.77,28.4,28.4,1010.0,78.0,1010.0,1009.0,3.39,33.0,4.23,55.0,"2023-11-06 05:38:54+08:00","2023-11-06 17:20:53+08:00",803.0,"Clouds","broken clouds","04n","2023-11-06 18:03:44.966740+08:00","Sagay","","",""
10000.0,"2023-11-06 18:03:46+08:00",120.5431,14.7678,31.07,38.07,31.05,32.85,1011.0,77.0,1011.0,1010.0,3.05,65.0,4.89,96.0,"2023-11-06 05:54:56+08:00","2023-11-06 17:27:54+08:00",804.0,"Clouds","overcast clouds","04n","2023-11-06 18:03:46.724459+08:00","Samal",1.0,8151.0,""
10000.0,"2023-11-06 18:03:48+08:00",120.8931,15.5448,26.56,26.56,26.56,26.56,1010.0,81.0,1010.0,1006.0,2.52,103.0,4.81,48.0,"2023-11-06 05:54:28+08:00","2023-11-06 17:25:34+08:00",802.0,"Clouds","scattered clouds","03n","2023-11-06 18:03:49.010817+08:00","San Carlos","","",""
10000.0,"2023-11-06 18:03:51+08:00",120.3166,16.6159,28.23,32.68,28.23,28.23,1011.0,80.0,1011.0,1010.0,2.6,16.0,2.89,21.0,"2023-11-06 05:58:04+08:00","2023-11-06 17:26:35+08:00",801.0,"Clouds","few clouds","02n","2023-11-06 18:03:51.507034+08:00","San Fernando","","",""
10000.0,"2023-11-06 18:03:53+08:00",121.8712,17.8927,25.81,26.72,25.81,25.81,1013.0,87.0,1013.0,1009.0,2.65,84.0,5.17,23.0,"2023-11-06 05:53:24+08:00","2023-11-06 17:18:48+08:00",801.0,"Clouds","few clouds","02n","2023-11-06 18:03:53.795393+08:00","San Jose","","",""
10000.0,"2023-11-06 18:03:56+08:00",121.0453,14.8139,30.79,37.33,29.15,31.72,1011.0,71.0,1011.0,1005.0,2.86,59.0,5.36,34.0,"2023-11-06 05:52:59+08:00","2023-11-06 17:25:50+08:00",802.0,"Clouds","scattered clouds","03n","2023-11-06 18:03:56.300712+08:00","San Jose del Monte",2.0,2008256.0,""
10000.0,"2023-11-06 18:03:58+08:00",120.4583,17.7422,30.92,37.92,30.92,30.92,1011.0,86.0,1011.0,1009.0,1.0,294.0,1.03,11.0,"2023-11-06 05:58:52+08:00","2023-11-06 17:24:38+08:00",801.0,"Clouds","few clouds","02n","2023-11-06 18:03:58.060090+08:00","San Juan",1.0,8159.0,""
10000.0,"2023-11-06 18:03:59+08:00",120.6197,14.9696,32.87,39.87,31.06,32.87,1011.0,77.0,1011.0,1010.0,3.04,71.0,6.87,78.0,"2023-11-06 05:54:52+08:00","2023-11-06 17:27:21+08:00",803.0,"Clouds","broken clouds","04n","2023-11-06 18:03:59.471380+08:00","San Pablo",1.0,8152.0,""
10000.0,"2023-11-06 18:04:02+08:00",121.8833,17.2,26.55,26.55,26.55,26.55,1012.0,85.0,1012.0,1008.0,1.65,89.0,3.19,21.0,"2023-11-06 05:52:30+08:00","2023-11-06 17:19:36+08:00",801.0,"Clouds","few clouds","02n","2023-11-06 18:04:02.106647+08:00","San Pedro","","",""
10000.0,"2023-11-06 18:04:04+08:00",120.9378,15.4238,32.71,39.71,32.71,32.71,1010.0,80.0,1010.0,1007.0,2.65,101.0,4.86,41.0,"2023-11-06 05:54:08+08:00","2023-11-06 17:25:32+08:00",802.0,"Clouds","scattered clouds","03n","2023-11-06 18:04:04.683310+08:00","Santa Rosa",1.0,8152.0,""
10000.0,"2023-11-06 18:04:06+08:00",120.4449,17.2939,27.46,31.04,27.46,27.46,1011.0,82.0,1011.0,1010.0,0.63,340.0,1.03,13.0,"2023-11-06 05:58:23+08:00","2023-11-06 17:25:14+08:00",801.0,"Clouds","few clouds","02n","2023-11-06 18:04:06.363256+08:00","Santiago","","",""
10000.0,"2023-11-06 18:04:07+08:00",121.7645,17.3997,27.55,31.0,27.55,27.55,1012.0,80.0,1012.0,1008.0,0.64,25.0,1.48,23.0,"2023-11-06 05:53:14+08:00","2023-11-06 17:19:50+08:00",801.0,"Clouds","few clouds","02n","2023-11-06 18:04:07.697573+08:00","Santo Tomas","","",""
10000.0,"2023-11-06 18:04:09+08:00",122.9667,10.8,27.74,31.6,27.74,27.74,1009.0,81.0,1009.0,1009.0,4.88,46.0,6.74,23.0,"2023-11-06 05:40:34+08:00","2023-11-06 17:22:53+08:00",801.0,"Clouds","few clouds","02n","2023-11-06 18:04:09.829242+08:00","Silay City","","",""
10000.0,"2023-11-06 18:04:11+08:00",122.4042,9.7519,27.88,31.95,27.88,27.88,1009.0,81.0,1009.0,1008.0,2.41,64.0,2.64,41.0,"2023-11-06 05:41:36+08:00","2023-11-06 17:26:20+08:00",802.0,"Clouds","scattered clouds","03n","2023-11-06 18:04:11.844969+08:00","Sipalay","","",""
10000.0,"2023-11-06 18:04:13+08:00",125.5,9.75,27.18,30.14,27.18,27.18,1010.0,80.0,1010.0,1003.0,2.83,72.0,5.21,31.0,"2023-11-06 05:29:13+08:00","2023-11-06 17:13:58+08:00",802.0,"Clouds","scattered clouds","03n","2023-11-06 18:04:13.777852+08:00","Surigao City","","",""
10000.0,"2023-11-06 18:04:16+08:00",123.7336,13.3586,27.81,31.92,27.81,27.81,1011.0,82.0,1011.0,1010.0,1.58,77.0,3.43,62.0,"2023-11-06 05:40:30+08:00","2023-11-06 17:16:49+08:00",803.0,"Clouds","broken clouds","04n","2023-11-06 18:04:16.237494+08:00","Tabaco","","",""
10000.0,"2023-11-06 18:04:18+08:00",121.4443,17.4189,25.61,26.5,25.61,25.61,1013.0,87.0,1013.0,992.0,0.95,324.0,1.36,15.0,"2023-11-06 05:54:32+08:00","2023-11-06 17:21:05+08:00",801.0,"Clouds","few clouds","02n","2023-11-06 18:04:18.566928+08:00","Tabuk","","",""
10000.0,"2023-11-06 18:04:20+08:00",125.0,11.25,26.49,26.49,26.49,26.49,1010.0,86.0,1010.0,1010.0,1.56,49.0,3.21,88.0,"2023-11-06 05:32:57+08:00","2023-11-06 17:14:13+08:00",804.0,"Clouds","overcast clouds","04n","2023-11-06 18:04:20.620817+08:00","Tacloban City","","",""
10000.0,"2023-11-06 18:04:22+08:00",124.6764,6.6925,26.09,26.09,26.09,26.09,1009.0,86.0,1009.0,1003.0,0.69,218.0,1.04,90.0,"2023-11-06 05:29:00+08:00","2023-11-06 17:20:45+08:00",804.0,"Clouds","overcast clouds","04n","2023-11-06 18:04:22.551940+08:00","Tacurong","","",""
10000.0,"2023-11-06 18:03:35+08:00",120.9337,14.1059,25.32,26.1,25.3,27.87,1011.0,84.0,1011.0,939.0,2.67,79.0,5.85,22.0,"2023-11-06 05:52:35+08:00","2023-11-06 17:27:08+08:00",801.0,"Clouds","few clouds","02n","2023-11-06 18:04:24.845504+08:00","Tagaytay City",2.0,2084056.0,""
10000.0,"2023-11-06 18:04:26+08:00",121.0792,14.5243,30.42,37.42,29.47,31.22,1011.0,76.0,"","",4.47,114.0,5.36,20.0,"2023-11-06 05:52:30+08:00","2023-11-06 17:26:03+08:00",801.0,"Clouds","few clouds","02n","2023-11-06 18:04:26.640357+08:00","Taguig",2.0,2083945.0,""
10000.0,"2023-11-06 18:04:29+08:00",122.9226,14.1343,26.71,29.84,26.71,26.71,1011.0,89.0,1011.0,1010.0,3.5,60.0,5.82,22.0,"2023-11-06 05:44:39+08:00","2023-11-06 17:19:08+08:00",801.0,"Clouds","few clouds","02n","2023-11-06 18:04:29.298822+08:00","Talisay","","",""
10000.0,"2023-11-06 18:04:30+08:00",121.1498,14.0863,28.53,34.84,28.51,30.08,1011.0,87.0,1011.0,994.0,2.24,64.0,5.01,17.0,"2023-11-06 05:51:42+08:00","2023-11-06 17:26:17+08:00",801.0,"Clouds","few clouds","02n","2023-11-06 18:04:30.828521+08:00","Tanauan",2.0,2084056.0,""
10000.0,"2023-11-06 18:04:33+08:00",126.1986,9.0783,26.95,30.19,26.95,26.95,1010.0,86.0,1010.0,1009.0,2.66,2.0,3.76,33.0,"2023-11-06 05:25:39+08:00","2023-11-06 17:11:56+08:00",802.0,"Clouds","scattered clouds","03n","2023-11-06 18:04:33.153457+08:00","Tandag","","",""
10000.0,"2023-11-06 18:04:35+08:00",122.9306,10.6339,27.5,31.13,27.5,27.5,1009.0,82.0,1009.0,1009.0,3.91,43.0,5.53,20.0,"2023-11-06 05:40:31+08:00","2023-11-06 17:23:13+08:00",801.0,"Clouds","few clouds","02n","2023-11-06 18:04:35.895568+08:00","Tangub","","",""
10000.0,"2023-11-06 18:04:37+08:00",123.1583,9.5153,30.01,36.86,30.01,30.01,1009.0,77.0,1009.0,1008.0,0.43,51.0,1.54,13.0,"2023-11-06 05:38:19+08:00","2023-11-06 17:23:36+08:00",801.0,"Clouds","few clouds","02n","2023-11-06 18:04:37.225894+08:00","Tanjay",1.0,8185.0,""
10000.0,"2023-11-06 18:04:39+08:00",120.5986,15.4889,31.6,38.6,31.6,31.6,1011.0,83.0,1011.0,1005.0,2.32,161.0,3.54,56.0,"2023-11-06 05:55:34+08:00","2023-11-06 17:26:49+08:00",803.0,"Clouds","broken clouds","04n","2023-11-06 18:04:39.453873+08:00","Tarlac City",1.0,8152.0,""
10000.0,"2023-11-06 18:04:42+08:00",121.5911,14.0289,26.61,26.61,26.61,26.61,1011.0,93.0,1011.0,989.0,2.73,36.0,6.79,15.0,"2023-11-06 05:49:51+08:00","2023-11-06 17:24:35+08:00",801.0,"Clouds","few clouds","02n","2023-11-06 18:04:42.053295+08:00","Tayabas",2.0,2011004.0,""
10000.0,"2023-11-06 18:04:43+08:00",123.6333,10.3833,29.05,35.1,28.89,29.05,1010.0,81.0,1010.0,1010.0,2.76,16.0,3.37,38.0,"2023-11-06 05:37:25+08:00","2023-11-06 17:20:42+08:00",802.0,"Clouds","scattered clouds","03n","2023-11-06 18:04:43.523742+08:00","Toledo City",1.0,8187.0,""
10000.0,"2023-11-06 18:04:45+08:00",121.7269,17.6131,27.01,29.86,27.01,27.01,1012.0,81.0,1012.0,1008.0,1.86,34.0,2.37,23.0,"2023-11-06 05:53:38+08:00","2023-11-06 17:19:43+08:00",801.0,"Clouds","few clouds","02n","2023-11-06 18:04:45.810443+08:00","Tuguegarao","","",""
10000.0,"2023-11-06 18:04:48+08:00",120.5711,15.9761,27.6,30.99,27.6,27.6,1010.0,79.0,1010.0,1007.0,0.54,188.0,1.68,29.0,"2023-11-06 05:56:16+08:00","2023-11-06 17:26:20+08:00",802.0,"Clouds","scattered clouds","03n","2023-11-06 18:04:48.356975+08:00","Urdaneta","","",""
10000.0,"2023-11-06 18:04:50+08:00",124.5725,11.1089,26.21,26.21,26.21,26.21,1010.0,86.0,1010.0,1006.0,1.71,97.0,2.58,46.0,"2023-11-06 05:34:30+08:00","2023-11-06 17:16:06+08:00",802.0,"Clouds","scattered clouds","03n","2023-11-06 18:04:50.344355+08:00","Valencia","","",""
10000.0,"2023-11-06 18:04:51+08:00",120.9667,14.7,30.96,37.79,29.42,31.17,1011.0,71.0,"","",1.34,90.0,4.47,43.0,"2023-11-06 05:53:09+08:00","2023-11-06 17:26:17+08:00",802.0,"Clouds","scattered clouds","03n","2023-11-06 18:04:51.620554+08:00","Valenzuela",2.0,2008256.0,""
10000.0,"2023-11-06 18:04:52+08:00",123.0778,10.9,27.97,32.18,27.97,27.97,1010.0,81.0,1010.0,1008.0,4.46,48.0,5.88,38.0,"2023-11-06 05:40:14+08:00","2023-11-06 17:22:19+08:00",802.0,"Clouds","scattered clouds","03n","2023-11-06 18:04:52.884009+08:00","Victorias","","",""
10000.0,"2023-11-06 18:04:54+08:00",120.3869,17.5747,28.15,32.48,28.15,28.15,1011.0,80.0,1011.0,1009.0,1.33,307.0,1.49,11.0,"2023-11-06 05:58:57+08:00","2023-11-06 17:25:08+08:00",801.0,"Clouds","few clouds","02n","2023-11-06 18:04:54.361477+08:00","Vigan","","",""
10000.0,"2023-11-06 18:04:55+08:00",122.0696,6.9135,27.99,32.54,27.99,27.99,1009.0,83.0,"","",2.06,300.0,"",20.0,"2023-11-06 05:39:41+08:00","2023-11-06 17:30:56+08:00",801.0,"Clouds","few clouds","02n","2023-11-06 18:04:55.970606+08:00","Zamboanga City",1.0,8169.0,""
10000.0,"2023-11-07 00:00:00+08:00",119.9811,16.1561,26.87,29.54,26.87,26.87,1012.0,81.0,1012.0,1010.0,3.34,113.0,4.45,93.0,"2023-11-07 05:59:16+08:00","2023-11-07 17:28:10+08:00",500.0,"Rain","light rain","10n","2023-11-07 00:00:00.721421+08:00","Alaminos","","",0.65
8000.0,"2023-11-06 23:59:41+08:00",120.5833,15.15,27.25,30.64,27.25,27.25,1014.0,83.0,"","",1.03,290.0,"",75.0,"2023-11-07 05:55:38+08:00","2023-11-07 17:26:59+08:00",803.0,"Clouds","broken clouds","04n","2023-11-07 00:00:03.979852+08:00","Angeles City",1.0,8152.0,""
10000.0,"2023-11-07 00:00:07+08:00",121.19,15.6181,24.16,25.09,24.16,24.16,1014.0,94.0,1014.0,1004.0,2.13,79.0,3.21,64.0,"2023-11-07 05:53:46+08:00","2023-11-07 17:23:59+08:00",803.0,"Clouds","broken clouds","04n","2023-11-07 00:00:07.321007+08:00","Antipolo","","",""
10000.0,"2023-11-07 00:00:10+08:00",123.5085,12.2285,26.36,26.36,26.36,26.36,1011.0,90.0,1011.0,1010.0,3.25,51.0,6.55,14.0,"2023-11-07 05:40:24+08:00","2023-11-07 17:18:49+08:00",801.0,"Clouds","few clouds","02n","2023-11-07 00:00:10.911691+08:00","Bacolod","","",""
10000.0,"2023-11-07 00:00:12+08:00",120.929,14.459000000000001,26.6,26.6,26.17,26.77,1012.0,92.0,1012.0,1011.0,3.33,86.0,4.79,94.0,"2023-11-07 05:53:24+08:00","2023-11-07 17:26:27+08:00",804.0,"Clouds","overcast clouds","04n","2023-11-07 00:00:13.061386+08:00","Bacoor",2.0,2005706.0,""
10000.0,"2023-11-07 00:00:17+08:00",122.8333,10.5333,26.85,29.67,26.85,26.85,1010.0,83.0,1010.0,1010.0,3.17,29.0,4.85,14.0,"2023-11-07 05:41:05+08:00","2023-11-07 17:23:32+08:00",801.0,"Clouds","few clouds","02n","2023-11-07 00:00:18.186793+08:00","Bago City","","",""
10000.0,"2023-11-07 00:00:35+08:00",120.5931,16.4164,15.4,15.37,15.4,15.4,1015.0,91.0,1015.0,855.0,2.11,66.0,2.22,75.0,"2023-11-07 05:57:09+08:00","2023-11-07 17:25:24+08:00",803.0,"Clouds","broken clouds","04n","2023-11-07 00:00:36.352324+08:00","Baguio","","",""
10000.0,"2023-11-07 00:00:39+08:00",123.1228,9.5911,27.99,34.25,27.99,27.99,1011.0,93.0,1011.0,1010.0,1.56,57.0,1.62,14.0,"2023-11-07 05:38:49+08:00","2023-11-07 17:23:29+08:00",801.0,"Clouds","few clouds","02n","2023-11-07 00:00:39.920243+08:00","Bais",1.0,8185.0,""
10000.0,"2023-11-07 00:00:41+08:00",120.5361,14.6761,26.03,26.03,26.03,26.74,1013.0,82.0,1013.0,1011.0,3.53,53.0,7.82,83.0,"2023-11-07 05:55:14+08:00","2023-11-07 17:27:45+08:00",803.0,"Clouds","broken clouds","04n","2023-11-07 00:00:41.957233+08:00","Balanga",1.0,8151.0,""
10000.0,"2023-11-07 00:00:43+08:00",120.5649,18.0554,27.88,30.96,27.88,27.88,1012.0,74.0,"","",1.54,80.0,"",20.0,"2023-11-07 05:59:18+08:00","2023-11-07 17:23:28+08:00",801.0,"Clouds","few clouds","02n","2023-11-07 00:00:43.565411+08:00","Batac City",1.0,8159.0,""
10000.0,"2023-11-07 00:00:44+08:00",121.05,13.75,27.28,31.8,27.28,27.28,1012.0,92.0,1012.0,1011.0,2.73,68.0,3.66,87.0,"2023-11-07 05:52:04+08:00","2023-11-07 17:26:50+08:00",804.0,"Clouds","overcast clouds","04n","2023-11-07 00:00:44.925578+08:00","Batangas City",2.0,2011004.0,""
10000.0,"2023-11-07 00:00:46+08:00",122.8011,9.3636,24.93,25.88,24.93,24.93,1011.0,92.0,1011.0,1010.0,1.59,37.0,1.52,9.0,"2023-11-07 05:39:50+08:00","2023-11-07 17:25:03+08:00",800.0,"Clear","clear sky","01n","2023-11-07 00:00:46.567960+08:00","Bayawan","","",""
10000.0,"2023-11-07 00:00:48+08:00",123.7135,13.4083,25.6,26.67,25.6,25.6,1012.0,94.0,1012.0,1012.0,1.6,52.0,2.22,50.0,"2023-11-07 05:40:59+08:00","2023-11-07 17:16:35+08:00",802.0,"Clouds","scattered clouds","03n","2023-11-07 00:00:48.132450+08:00","Baybay","","",""
10000.0,"2023-11-07 00:00:49+08:00",125.7675,8.7561,22.96,23.87,22.96,22.96,1010.0,98.0,1010.0,1002.0,0.74,32.0,0.73,60.0,"2023-11-07 05:27:15+08:00","2023-11-07 17:13:54+08:00",803.0,"Clouds","broken clouds","04n","2023-11-07 00:00:49.982102+08:00","Bayugan","","",""
10000.0,"2023-11-07 00:00:51+08:00",125.0336,11.0725,25.66,26.66,25.66,25.66,1010.0,91.0,1010.0,1010.0,2.45,316.0,2.57,99.0,"2023-11-07 05:32:55+08:00","2023-11-07 17:14:06+08:00",804.0,"Clouds","overcast clouds","04n","2023-11-07 00:00:51.363029+08:00","Bislig","","",""
10000.0,"2023-11-07 00:00:52+08:00",121.0807,14.3427,26.56,26.56,26.16,26.76,1013.0,92.0,"","",1.79,4.0,1.79,99.0,"2023-11-07 05:52:39+08:00","2023-11-07 17:25:59+08:00",804.0,"Clouds","overcast clouds","04n","2023-11-07 00:00:53.013264+08:00","Biñan",2.0,2084056.0,""
10000.0,"2023-11-07 00:00:55+08:00",124.0055,11.0517,26.79,29.61,26.79,26.79,1010.0,84.0,1010.0,1009.0,2.68,43.0,3.8,30.0,"2023-11-07 05:37:00+08:00","2023-11-07 17:18:14+08:00",802.0,"Clouds","scattered clouds","03n","2023-11-07 00:00:55.691136+08:00","Bogo","","",""
10000.0,"2023-11-07 00:00:57+08:00",125.4319,11.6081,26.57,26.57,26.57,26.57,1010.0,88.0,1010.0,1010.0,2.59,9.0,3.73,91.0,"2023-11-07 05:31:58+08:00","2023-11-07 17:11:52+08:00",804.0,"Clouds","overcast clouds","04n","2023-11-07 00:00:57.260051+08:00","Borongan","","",""
10000.0,"2023-11-07 00:00:58+08:00",125.5436,8.9492,24.42,25.29,24.42,24.42,1010.0,91.0,1010.0,1009.0,1.56,122.0,2.02,47.0,"2023-11-07 05:28:22+08:00","2023-11-07 17:14:34+08:00",802.0,"Clouds","scattered clouds","03n","2023-11-07 00:00:58.715569+08:00","Butuan","","",""
10000.0,"2023-11-07 00:01:00+08:00",125.5344,9.1236,25.07,25.88,25.07,25.07,1010.0,86.0,1010.0,1009.0,1.49,92.0,1.32,60.0,"2023-11-07 05:28:37+08:00","2023-11-07 17:14:24+08:00",803.0,"Clouds","broken clouds","04n","2023-11-07 00:01:00.408796+08:00","Cabadbaran","","",""
10000.0,"2023-11-07 00:01:02+08:00",120.9667,15.4833,24.09,24.88,24.09,24.09,1012.0,89.0,1012.0,1008.0,0.64,75.0,1.06,79.0,"2023-11-07 05:54:30+08:00","2023-11-07 17:25:03+08:00",803.0,"Clouds","broken clouds","04n","2023-11-07 00:01:02.814152+08:00","Cabanatuan City","","",""
10000.0,"2023-11-07 00:00:09+08:00",121.1262,14.2726,26.5,26.5,26.1,26.7,1012.0,93.0,1012.0,1011.0,3.73,88.0,7.79,99.0,"2023-11-07 05:52:23+08:00","2023-11-07 17:25:53+08:00",804.0,"Clouds","overcast clouds","04n","2023-11-07 00:01:04.479544+08:00","Cabuyao",2.0,2084056.0,""
10000.0,"2023-11-07 00:01:06+08:00",123.2856,10.9506,27.67,31.29,27.67,27.67,1011.0,80.0,1011.0,1010.0,2.17,70.0,3.19,52.0,"2023-11-07 05:39:46+08:00","2023-11-07 17:21:14+08:00",803.0,"Clouds","broken clouds","04n","2023-11-07 00:01:06.740093+08:00","Cadiz","","",""
10000.0,"2023-11-07 00:01:08+08:00",124.6472,8.4822,25.29,26.2,25.29,25.29,1010.0,89.0,1010.0,1009.0,2.53,199.0,2.72,29.0,"2023-11-07 05:31:25+08:00","2023-11-07 17:18:42+08:00",802.0,"Clouds","scattered clouds","03n","2023-11-07 00:01:08.506286+08:00","Cagayan de Oro","","",""
10000.0,"2023-11-07 00:01:10+08:00",120.8133,13.9324,25.26,26.17,25.26,25.26,1012.0,89.0,1012.0,1009.0,2.87,75.0,10.12,98.0,"2023-11-07 05:53:14+08:00","2023-11-07 17:27:33+08:00",804.0,"Clouds","overcast clouds","04n","2023-11-07 00:01:10.227975+08:00","Calaca","","",""
10000.0,"2023-11-07 00:01:12+08:00",121.1653,14.2117,26.5,26.5,26.1,28.97,1013.0,91.0,1013.0,1011.0,3.61,91.0,8.12,99.0,"2023-11-07 05:52:09+08:00","2023-11-07 17:25:48+08:00",804.0,"Clouds","overcast clouds","04n","2023-11-07 00:01:12.419095+08:00","Calamba",2.0,2084056.0,""
10000.0,"2023-11-07 00:01:14+08:00",121.1803,13.4117,27.28,30.71,27.28,27.28,1012.0,83.0,1012.0,1011.0,4.8,128.0,6.42,54.0,"2023-11-07 05:51:08+08:00","2023-11-07 17:26:43+08:00",803.0,"Clouds","broken clouds","04n","2023-11-07 00:01:14.744145+08:00","Calapan",2.0,2011004.0,""
10000.0,"2023-11-07 00:01:17+08:00",124.6,12.0667,25.36,26.38,25.36,25.36,1011.0,93.0,1011.0,1010.0,1.92,53.0,2.81,44.0,"2023-11-07 05:35:50+08:00","2023-11-07 17:14:39+08:00",802.0,"Clouds","scattered clouds","03n","2023-11-07 00:01:17.754265+08:00","Calbayog City","","",""
10000.0,"2023-11-07 00:01:19+08:00",120.9667,14.65,26.75,30.12,26.16,26.77,1014.0,91.0,"","",2.33,78.0,3.89,98.0,"2023-11-07 05:53:29+08:00","2023-11-07 17:26:04+08:00",804.0,"Clouds","overcast clouds","04n","2023-11-07 00:01:19.149256+08:00","Caloocan City",2.0,2008256.0,""
10000.0,"2023-11-07 00:01:20+08:00",120.4517,17.1947,25.4,26.22,25.4,25.4,1013.0,85.0,1013.0,1012.0,2.35,98.0,2.2,31.0,"2023-11-07 05:58:41+08:00","2023-11-07 17:24:59+08:00",802.0,"Clouds","scattered clouds","03n","2023-11-07 00:01:20.485043+08:00","Candon","","",""
10000.0,"2023-11-07 00:01:23+08:00",123.1964,10.3864,22.1,22.66,22.1,22.1,1011.0,88.0,1011.0,950.0,1.5,38.0,1.79,13.0,"2023-11-07 05:39:27+08:00","2023-11-07 17:22:16+08:00",801.0,"Clouds","few clouds","02n","2023-11-07 00:01:23.207274+08:00","Canlaon","","",""
10000.0,"2023-11-07 00:01:24+08:00",123.6402,10.1061,26.98,29.88,26.98,26.98,1010.0,82.0,1010.0,1009.0,3.02,30.0,3.46,23.0,"2023-11-07 05:37:21+08:00","2023-11-07 17:20:49+08:00",801.0,"Clouds","few clouds","02n","2023-11-07 00:01:24.964664+08:00","Carcar",1.0,8187.0,""
10000.0,"2023-11-07 00:01:27+08:00",121.0576,14.3132,26.43,26.43,26.03,26.64,1013.0,91.0,"","",1.34,2.0,1.34,99.0,"2023-11-07 05:52:43+08:00","2023-11-07 17:26:07+08:00",804.0,"Clouds","overcast clouds","04n","2023-11-07 00:01:27.586521+08:00","Carmona",2.0,2084056.0,""
10000.0,"2023-11-07 00:01:30+08:00",124.8861,11.7753,25.38,26.35,25.38,25.38,1011.0,91.0,1011.0,1006.0,1.52,39.0,1.89,87.0,"2023-11-07 05:34:20+08:00","2023-11-07 17:13:51+08:00",804.0,"Clouds","overcast clouds","04n","2023-11-07 00:01:30.386911+08:00","Catbalogan","","",""
10000.0,"2023-11-07 00:01:32+08:00",121.7725,16.9347,25.09,25.87,25.09,25.09,1014.0,85.0,1014.0,1007.0,0.75,33.0,1.12,100.0,"2023-11-07 05:53:04+08:00","2023-11-07 17:20:02+08:00",804.0,"Clouds","overcast clouds","04n","2023-11-07 00:01:32.766573+08:00","Cauayan","","",""
10000.0,"2023-11-07 00:01:34+08:00",120.9169,14.4825,26.64,26.64,26.18,26.77,1012.0,92.0,1012.0,1012.0,3.34,85.0,4.4,93.0,"2023-11-07 05:53:29+08:00","2023-11-07 17:26:28+08:00",804.0,"Clouds","overcast clouds","04n","2023-11-07 00:01:35.336797+08:00","Cavite City",2.0,2005706.0,""
10000.0,"2023-11-07 00:00:29+08:00",123.8907,10.3167,26.81,30.11,26.43,26.81,1011.0,89.0,"","",1.03,330.0,"",75.0,"2023-11-07 05:36:36+08:00","2023-11-07 17:19:34+08:00",803.0,"Clouds","broken clouds","04n","2023-11-07 00:01:37.113110+08:00","Cebu City",1.0,8187.0,""
10000.0,"2023-11-07 00:01:38+08:00",121.1,14.6333,26.41,26.41,26.12,26.71,1012.0,91.0,1012.0,1011.0,2.15,77.0,3.85,100.0,"2023-11-07 05:52:56+08:00","2023-11-07 17:25:33+08:00",804.0,"Clouds","overcast clouds","04n","2023-11-07 00:01:38.947999+08:00","City of Marikina",2.0,2008256.0,""
10000.0,"2023-11-07 00:01:40+08:00",123.5833,12.3333,26.31,26.31,26.31,26.31,1011.0,89.0,1011.0,1007.0,2.97,46.0,5.8,20.0,"2023-11-07 05:40:13+08:00","2023-11-07 17:18:24+08:00",801.0,"Clouds","few clouds","02n","2023-11-07 00:01:40.390138+08:00","City of Masbate","","",""
10000.0,"2023-11-07 00:01:42+08:00",122.65,11.15,25.9,27.0,25.9,25.9,1011.0,94.0,1011.0,1005.0,1.98,345.0,2.8,41.0,"2023-11-07 05:42:33+08:00","2023-11-07 17:23:32+08:00",802.0,"Clouds","scattered clouds","03n","2023-11-07 00:01:42.079248+08:00","City of Passi",2.0,2073369.0,""
10000.0,"2023-11-07 00:01:44+08:00",123.9833,12.9833,26.45,26.45,26.45,26.45,1011.0,88.0,1011.0,1006.0,2.78,32.0,4.94,50.0,"2023-11-07 05:39:24+08:00","2023-11-07 17:16:01+08:00",802.0,"Clouds","scattered clouds","03n","2023-11-07 00:01:44.522000+08:00","City of Sorsogon","","",""
10000.0,"2023-11-07 00:01:46+08:00",124.2464,7.2236,25.67,26.59,25.67,25.67,1010.0,88.0,1010.0,1009.0,0.52,318.0,1.44,23.0,"2023-11-07 05:31:33+08:00","2023-11-07 17:21:46+08:00",801.0,"Clouds","few clouds","02n","2023-11-07 00:01:46.246994+08:00","Cotabato","","",""
10000.0,"2023-11-07 00:01:48+08:00",121.5047,17.7061,24.35,25.24,24.35,24.35,1014.0,92.0,1014.0,1010.0,1.91,335.0,2.54,91.0,"2023-11-07 05:55:06+08:00","2023-11-07 17:20:08+08:00",804.0,"Clouds","overcast clouds","04n","2023-11-07 00:01:48.403667+08:00","Dagupan","","",""
10000.0,"2023-11-07 00:01:50+08:00",124.0272,10.5208,26.65,26.65,26.65,27.03,1010.0,92.0,1010.0,1010.0,1.79,299.0,2.68,16.0,"2023-11-07 05:36:17+08:00","2023-11-07 17:18:47+08:00",801.0,"Clouds","few clouds","02n","2023-11-07 00:01:50.410709+08:00","Danao",2.0,2089763.0,""
10000.0,"2023-11-07 00:01:52+08:00",123.9469,10.2706,27.03,30.71,26.65,27.03,1011.0,89.0,"","",1.03,330.0,"",75.0,"2023-11-07 05:36:19+08:00","2023-11-07 17:19:24+08:00",803.0,"Clouds","broken clouds","04n","2023-11-07 00:01:52.858250+08:00","Dapitan",1.0,8187.0,""
10000.0,"2023-11-07 00:01:55+08:00",120.9367,14.3294,26.07,26.07,25.66,26.25,1012.0,92.0,1012.0,1003.0,3.54,89.0,7.06,97.0,"2023-11-07 05:53:13+08:00","2023-11-07 17:26:35+08:00",804.0,"Clouds","overcast clouds","04n","2023-11-07 00:01:55.630965+08:00","Dasmariñas",2.0,2084056.0,""
10000.0,"2023-11-07 00:01:56+08:00",125.6128,7.0731,27.05,30.77,27.05,27.05,1010.0,89.0,"","",1.03,0.0,"",20.0,"2023-11-07 05:25:54+08:00","2023-11-07 17:16:29+08:00",801.0,"Clouds","few clouds","02n","2023-11-07 00:01:57.015414+08:00","Davao",1.0,8154.0,""
10000.0,"2023-11-07 00:01:58+08:00",125.3572,6.7497,25.62,26.48,25.62,25.62,1010.0,86.0,1010.0,1008.0,1.68,325.0,1.51,59.0,"2023-11-07 05:26:33+08:00","2023-11-07 17:17:52+08:00",803.0,"Clouds","broken clouds","04n","2023-11-07 00:01:58.447247+08:00","Digos","","",""
10000.0,"2023-11-07 00:01:59+08:00",123.3414,8.5894,26.79,29.79,26.79,26.79,1010.0,86.0,1010.0,1009.0,2.58,71.0,3.71,26.0,"2023-11-07 05:36:46+08:00","2023-11-07 17:23:47+08:00",802.0,"Clouds","scattered clouds","03n","2023-11-07 00:01:59.777186+08:00","Dipolog","","",""
10000.0,"2023-11-07 00:02:01+08:00",123.3081,9.3103,27.99,32.54,27.99,27.99,1011.0,83.0,"","",2.06,20.0,"",75.0,"2023-11-07 05:37:44+08:00","2023-11-07 17:23:05+08:00",803.0,"Clouds","broken clouds","04n","2023-11-07 00:02:01.571759+08:00","Dumaguete",1.0,8185.0,""
10000.0,"2023-11-07 00:02:03+08:00",124.5225,8.5631,26.04,26.04,26.04,26.04,1010.0,87.0,1010.0,1009.0,2.43,175.0,2.96,36.0,"2023-11-07 05:32:00+08:00","2023-11-07 17:19:06+08:00",802.0,"Clouds","scattered clouds","03n","2023-11-07 00:02:04.159983+08:00","El Salvador","","",""
10000.0,"2023-11-07 00:02:05+08:00",123.4992,10.8403,27.15,30.18,27.15,27.15,1010.0,81.0,1010.0,1007.0,1.33,11.0,2.61,45.0,"2023-11-07 05:38:47+08:00","2023-11-07 17:20:31+08:00",802.0,"Clouds","scattered clouds","03n","2023-11-07 00:02:05.808963+08:00","Escalante","","",""
10000.0,"2023-11-07 00:02:07+08:00",120.9464,15.3072,27.74,32.62,27.74,27.74,1012.0,88.0,1012.0,1009.0,1.14,18.0,1.88,92.0,"2023-11-07 05:54:22+08:00","2023-11-07 17:25:21+08:00",804.0,"Clouds","overcast clouds","04n","2023-11-07 00:02:07.764282+08:00","Gapan",1.0,8152.0,""
10000.0,"2023-11-07 00:02:10+08:00",125.1717,6.1128,25.63,26.55,25.63,25.63,1010.0,88.0,1010.0,1008.0,0.22,9.0,0.68,27.0,"2023-11-07 05:26:33+08:00","2023-11-07 17:19:21+08:00",802.0,"Clouds","scattered clouds","03n","2023-11-07 00:02:10.824781+08:00","General Santos","","",""
10000.0,"2023-11-07 00:02:12+08:00",120.8817,14.3869,26.48,26.48,26.07,26.66,1012.0,91.0,1012.0,1010.0,3.59,86.0,6.24,93.0,"2023-11-07 05:53:30+08:00","2023-11-07 17:26:44+08:00",804.0,"Clouds","overcast clouds","04n","2023-11-07 00:02:12.613782+08:00","General Trias",2.0,2084056.0,""
10000.0,"2023-11-07 00:02:14+08:00",125.1167,8.8333,25.58,26.54,25.58,25.58,1011.0,90.0,1011.0,1011.0,0.81,205.0,1.41,62.0,"2023-11-07 05:29:57+08:00","2023-11-07 17:16:24+08:00",803.0,"Clouds","broken clouds","04n","2023-11-07 00:02:14.590927+08:00","Gingoog City","","",""
10000.0,"2023-11-07 00:02:16+08:00",122.8706,10.0989,26.11,26.11,26.11,26.11,1011.0,86.0,1011.0,1010.0,1.64,81.0,1.9,10.0,"2023-11-07 05:40:25+08:00","2023-11-07 17:23:54+08:00",800.0,"Clear","clear sky","01n","2023-11-07 00:02:16.323000+08:00","Himamaylan","","",""
10000.0,"2023-11-07 00:02:18+08:00",121.8892,17.1485,24.52,25.35,24.52,24.52,1014.0,89.0,1014.0,1009.0,1.37,26.0,2.29,77.0,"2023-11-07 05:52:52+08:00","2023-11-07 17:19:18+08:00",803.0,"Clouds","broken clouds","04n","2023-11-07 00:02:18.921903+08:00","Ilagan","","",""
10000.0,"2023-11-07 00:02:20+08:00",124.4,8.25,22.78,23.57,22.78,22.78,1011.0,94.0,1011.0,977.0,1.65,159.0,1.58,24.0,"2023-11-07 05:32:08+08:00","2023-11-07 17:19:57+08:00",801.0,"Clouds","few clouds","02n","2023-11-07 00:02:20.984601+08:00","Iligan City","","",""
10000.0,"2023-11-07 00:02:23+08:00",122.55,10.75,25.85,26.74,25.85,25.85,1010.0,86.0,1010.0,1009.0,3.78,6.0,7.52,16.0,"2023-11-07 05:42:28+08:00","2023-11-07 17:24:25+08:00",801.0,"Clouds","few clouds","02n","2023-11-07 00:02:23.325876+08:00","Iloilo City","","",""
10000.0,"2023-11-07 00:02:25+08:00",120.9367,14.4297,26.55,26.55,26.14,26.73,1012.0,92.0,1012.0,1011.0,3.36,87.0,5.29,95.0,"2023-11-07 05:53:20+08:00","2023-11-07 17:26:27+08:00",804.0,"Clouds","overcast clouds","04n","2023-11-07 00:02:25.512919+08:00","Imus",2.0,2037715.0,""
10000.0,"2023-11-07 00:02:27+08:00",123.4167,13.4167,25.16,26.19,25.16,25.16,1012.0,94.0,1012.0,1010.0,1.3,46.0,1.6,45.0,"2023-11-07 05:42:11+08:00","2023-11-07 17:17:46+08:00",802.0,"Clouds","scattered clouds","03n","2023-11-07 00:02:28.035480+08:00","Iriga City","","",""
10000.0,"2023-11-07 00:02:29+08:00",122.9888,10.2048,25.44,26.29,25.44,25.44,1011.0,86.0,1011.0,1008.0,1.95,84.0,1.93,10.0,"2023-11-07 05:40:04+08:00","2023-11-07 17:23:18+08:00",800.0,"Clear","clear sky","01n","2023-11-07 00:02:30.074202+08:00","Isabela","","",""
10000.0,"2023-11-07 00:02:32+08:00",122.8122,9.9889,25.87,26.78,25.87,25.87,1011.0,87.0,1011.0,1009.0,1.31,112.0,1.42,10.0,"2023-11-07 05:40:31+08:00","2023-11-07 17:24:16+08:00",800.0,"Clear","clear sky","01n","2023-11-07 00:02:32.571566+08:00","Kabankalan","","",""
10000.0,"2023-11-07 00:02:35+08:00",125.0894,7.0083,22.88,23.55,22.88,22.88,1011.0,89.0,1011.0,981.0,0.9,76.0,1.01,52.0,"2023-11-07 05:27:55+08:00","2023-11-07 17:18:39+08:00",803.0,"Clouds","broken clouds","04n","2023-11-07 00:02:35.164361+08:00","Kidapawan","","",""
10000.0,"2023-11-07 00:02:36+08:00",124.8469,6.5031,24.19,25.09,24.19,24.19,1011.0,93.0,1011.0,1004.0,0.35,89.0,0.73,55.0,"2023-11-07 05:28:18+08:00","2023-11-07 17:20:12+08:00",803.0,"Clouds","broken clouds","04n","2023-11-07 00:02:36.809956+08:00","Koronadal","","",""
10000.0,"2023-11-07 00:02:38+08:00",122.9208,10.4233,26.05,26.05,26.05,26.05,1011.0,84.0,1011.0,1007.0,1.99,55.0,2.74,11.0,"2023-11-07 05:40:36+08:00","2023-11-07 17:23:19+08:00",801.0,"Clouds","few clouds","02n","2023-11-07 00:02:38.242104+08:00","La Carlota","","",""
10000.0,"2023-11-07 00:02:40+08:00",125.7022,6.0872,27.9,31.56,27.9,27.9,1010.0,78.0,1010.0,1009.0,1.1,36.0,1.84,54.0,"2023-11-07 05:24:24+08:00","2023-11-07 17:17:16+08:00",803.0,"Clouds","broken clouds","04n","2023-11-07 00:02:40.854162+08:00","Lamitan","","",""
10000.0,"2023-11-07 00:02:42+08:00",120.5936,18.1989,27.95,31.11,27.95,27.95,1012.0,74.0,"","",1.54,80.0,"",20.0,"2023-11-07 05:59:22+08:00","2023-11-07 17:23:10+08:00",801.0,"Clouds","few clouds","02n","2023-11-07 00:02:42.236374+08:00","Laoag",1.0,8159.0,""
10000.0,"2023-11-07 00:02:43+08:00",123.9494,10.3103,27.02,30.69,26.64,27.02,1011.0,89.0,"","",1.03,330.0,"",75.0,"2023-11-07 05:36:21+08:00","2023-11-07 17:19:20+08:00",803.0,"Clouds","broken clouds","04n","2023-11-07 00:02:43.817950+08:00","Lapu-Lapu City",1.0,8187.0,""
10000.0,"2023-11-07 00:02:46+08:00",120.9828,14.4506,26.51,26.51,26.1,26.69,1013.0,92.0,"","",1.34,2.0,1.34,98.0,"2023-11-07 05:53:11+08:00","2023-11-07 17:26:15+08:00",804.0,"Clouds","overcast clouds","04n","2023-11-07 00:02:46.380643+08:00","Las Piñas",2.0,2005706.0,""
10000.0,"2023-11-07 00:02:48+08:00",123.7333,13.1333,25.92,26.92,25.92,25.92,1011.0,90.0,1011.0,1009.0,1.9,17.0,4.08,36.0,"2023-11-07 05:40:35+08:00","2023-11-07 17:16:50+08:00",802.0,"Clouds","scattered clouds","03n","2023-11-07 00:02:48.565769+08:00","Legazpi City","","",""
10000.0,"2023-11-07 00:02:49+08:00",123.5325,13.2403,24.68,25.71,24.68,24.68,1012.0,96.0,1012.0,1006.0,1.03,33.0,1.33,44.0,"2023-11-07 05:41:31+08:00","2023-11-07 17:17:31+08:00",802.0,"Clouds","scattered clouds","03n","2023-11-07 00:02:50.026471+08:00","Ligao","","",""
10000.0,"2023-11-07 00:02:51+08:00",121.1667,13.95,25.25,26.34,25.25,25.25,1013.0,96.0,1013.0,976.0,1.67,41.0,4.98,98.0,"2023-11-07 05:51:50+08:00","2023-11-07 17:26:07+08:00",804.0,"Clouds","overcast clouds","04n","2023-11-07 00:02:51.592207+08:00","Lipa City",2.0,2011004.0,""
10000.0,"2023-11-07 00:02:52+08:00",122.5967,10.8794,25.42,26.32,25.42,25.42,1011.0,88.0,1011.0,1008.0,3.43,357.0,6.23,28.0,"2023-11-07 05:42:26+08:00","2023-11-07 17:24:04+08:00",802.0,"Clouds","scattered clouds","03n","2023-11-07 00:02:53.003817+08:00","Lucena","","",""
10000.0,"2023-11-07 00:02:55+08:00",122.4347,10.8925,24.87,25.74,24.87,24.87,1011.0,89.0,1011.0,1001.0,3.0,1.0,6.47,25.0,"2023-11-07 05:43:06+08:00","2023-11-07 17:24:42+08:00",802.0,"Clouds","scattered clouds","03n","2023-11-07 00:02:55.057165+08:00","Maasin","","",""
8000.0,"2023-11-07 00:02:57+08:00",120.5736,15.2216,27.21,30.54,27.21,27.21,1014.0,83.0,"","",1.03,290.0,"",75.0,"2023-11-07 05:55:45+08:00","2023-11-07 17:26:56+08:00",803.0,"Clouds","broken clouds","04n","2023-11-07 00:02:57.211718+08:00","Mabalacat City",1.0,8152.0,""
10000.0,"2023-11-07 00:02:59+08:00",121.0327,14.5503,26.53,26.53,26.04,26.63,1014.0,91.0,"","",0.89,2.0,0.89,100.0,"2023-11-07 05:53:06+08:00","2023-11-07 17:25:55+08:00",804.0,"Clouds","overcast clouds","04n","2023-11-07 00:02:59.464993+08:00","Makati City",2.0,2083945.0,""
10000.0,"2023-11-07 00:03:01+08:00",119.9379,15.6361,26.62,26.62,26.62,26.62,1012.0,82.0,1012.0,1011.0,1.75,94.0,1.63,80.0,"2023-11-07 05:58:48+08:00","2023-11-07 17:28:58+08:00",501.0,"Rain","moderate rain","10n","2023-11-07 00:03:01.305566+08:00","Malabon","","",3.16
10000.0,"2023-11-07 00:03:02+08:00",125.0833,8.15,19.7,20.26,19.7,19.7,1012.0,97.0,1012.0,921.0,0.24,260.0,0.86,31.0,"2023-11-07 05:29:17+08:00","2023-11-07 17:17:20+08:00",802.0,"Clouds","scattered clouds","03n","2023-11-07 00:03:02.930417+08:00","Malaybalay","","",""
10000.0,"2023-11-07 00:03:05+08:00",120.8117,14.8419,26.3,26.3,26.19,29.01,1012.0,78.0,1012.0,1011.0,2.82,46.0,5.78,95.0,"2023-11-07 05:54:20+08:00","2023-11-07 17:26:27+08:00",804.0,"Clouds","overcast clouds","04n","2023-11-07 00:03:05.364353+08:00","Malolos",2.0,2008256.0,""
10000.0,"2023-11-07 00:03:07+08:00",121.0409,14.5832,26.43,26.43,26.05,26.64,1014.0,91.0,"","",0.89,2.0,0.89,100.0,"2023-11-07 05:53:06+08:00","2023-11-07 17:25:51+08:00",804.0,"Clouds","overcast clouds","04n","2023-11-07 00:03:07.267233+08:00","Mandaluyong City",2.0,2083945.0,""
10000.0,"2023-11-07 00:03:09+08:00",123.9333,10.3333,26.98,30.58,26.61,26.98,1011.0,89.0,"","",1.03,330.0,"",75.0,"2023-11-07 05:36:27+08:00","2023-11-07 17:19:22+08:00",803.0,"Clouds","broken clouds","04n","2023-11-07 00:03:09.085082+08:00","Mandaue City",1.0,8187.0,""
10000.0,"2023-11-07 00:00:15+08:00",120.9822,14.6042,26.7,29.98,26.14,26.74,1014.0,91.0,"","",2.46,84.0,3.76,99.0,"2023-11-07 05:53:22+08:00","2023-11-07 17:26:04+08:00",804.0,"Clouds","overcast clouds","04n","2023-11-07 00:03:11.394933+08:00","Manila",2.0,2008256.0,""
10000.0,"2023-11-07 00:03:13+08:00",124.2928,7.9986,20.64,21.24,20.64,20.64,1012.0,95.0,1012.0,932.0,0.75,139.0,0.75,37.0,"2023-11-07 05:32:16+08:00","2023-11-07 17:20:41+08:00",802.0,"Clouds","scattered clouds","03n","2023-11-07 00:03:13.455033+08:00","Marawi","","",""
10000.0,"2023-11-07 00:03:14+08:00",125.4708,9.7339,26.53,26.53,26.53,26.53,1010.0,83.0,1010.0,1002.0,2.11,74.0,3.08,43.0,"2023-11-07 05:29:35+08:00","2023-11-07 17:13:56+08:00",502.0,"Rain","heavy intensity rain","10n","2023-11-07 00:03:15.071969+08:00","Mati","","",4.38
10000.0,"2023-11-07 00:03:17+08:00",120.9608,14.7369,26.32,26.32,26.16,26.75,1014.0,90.0,"","",0.89,24.0,0.89,99.0,"2023-11-07 05:53:37+08:00","2023-11-07 17:25:59+08:00",804.0,"Clouds","overcast clouds","04n","2023-11-07 00:03:17.282132+08:00","Meycauayan",2.0,2008256.0,""
10000.0,"2023-11-07 00:03:19+08:00",120.9031,15.7161,24.15,24.97,24.15,24.15,1013.0,90.0,1013.0,1005.0,1.71,87.0,3.23,68.0,"2023-11-07 05:55:03+08:00","2023-11-07 17:25:01+08:00",803.0,"Clouds","broken clouds","04n","2023-11-07 00:03:19.531799+08:00","Muñoz","","",""
10000.0,"2023-11-07 00:03:20+08:00",123.1814,13.6192,25.54,26.55,25.54,25.54,1012.0,92.0,1012.0,1011.0,2.15,45.0,3.61,58.0,"2023-11-07 05:43:22+08:00","2023-11-07 17:18:28+08:00",803.0,"Clouds","broken clouds","04n","2023-11-07 00:03:21.080357+08:00","Naga","","",""
10000.0,"2023-11-07 00:03:23+08:00",120.95,14.6667,26.34,26.34,26.16,26.75,1014.0,91.0,"","",0.89,24.0,0.89,98.0,"2023-11-07 05:53:34+08:00","2023-11-07 17:26:07+08:00",804.0,"Clouds","overcast clouds","04n","2023-11-07 00:03:23.756221+08:00","Navotas",2.0,2008256.0,""
10000.0,"2023-11-07 00:03:24+08:00",120.2828,14.8292,26.03,26.03,26.03,27.84,1014.0,83.0,"","",1.54,0.0,"",75.0,"2023-11-07 05:56:26+08:00","2023-11-07 17:28:35+08:00",803.0,"Clouds","broken clouds","04n","2023-11-07 00:03:24.950255+08:00","Olongapo",1.0,8151.0,""
